City Name,Temperature (F),Humidity %,Cloud Coverage %,Wind Speed (mph),City Latitude,City Longitude,City Country,City Local Date_Time,Random_Latitude,Random_Longitude
Rikitea,78.44,71,44,6.08,-23.1203,-134.9692,PF,"Tue, 09 Feb 2021 13:19:08",-45.98,-138.65
Puerto Ayora,82.4,74,40,13.8,-0.7393,-90.3518,EC,"Tue, 09 Feb 2021 16:19:08",-6.42,-102.73
Saskylakh,-24.63,83,0,8.59,71.9167,114.0833,RU,"Wed, 10 Feb 2021 07:19:08",72.34,114.57
Aksarka,-29.81,82,3,2.15,66.5606,67.7975,RU,"Wed, 10 Feb 2021 03:19:08",64.74,68.78
Barrow,-27.4,68,1,16.11,71.2906,-156.7887,US,"Tue, 09 Feb 2021 13:18:32",69.86,-161.43
Wuwei,39.0,33,1,3.4,37.9281,102.6414,CN,"Wed, 10 Feb 2021 06:19:09",37.73,103.61
Albany,28.0,72,100,3.27,42.6001,-73.9662,AU,"Tue, 09 Feb 2021 17:15:01",-89.31,111.88
Touros,82.4,74,40,13.8,-5.1989,-35.4608,BR,"Tue, 09 Feb 2021 19:19:09",-2.73,-30.08
Port Elizabeth,68.0,94,20,4.61,-33.918,25.5701,ZA,"Wed, 10 Feb 2021 00:19:09",-56.51,28.03
Mataura,49.35,93,100,5.93,-46.1927,168.8643,PF,"Wed, 10 Feb 2021 11:19:09",-79.98,-165.38
Bluff,53.17,90,100,14.94,-46.6,168.3333,NZ,"Wed, 10 Feb 2021 11:19:09",-81.67,174.82
Srandakan,76.77,86,100,3.67,-7.9386,110.2506,ID,"Wed, 10 Feb 2021 05:19:10",-17.36,106.97
Ponta do Sol,57.99,68,71,1.01,32.6667,-17.1,CV,"Tue, 09 Feb 2021 22:19:10",23.27,-28.7
Broome,27.0,80,90,9.22,42.2506,-75.833,AU,"Tue, 09 Feb 2021 17:19:10",-18.31,121.2
Makakilo City,78.8,44,20,9.22,21.3469,-158.0858,US,"Tue, 09 Feb 2021 12:19:10",4.95,-165.92
Hamilton,30.0,74,90,10.36,39.1834,-84.5333,US,"Tue, 09 Feb 2021 17:19:10",46.37,-114.47
Oranjemund,64.11,82,0,12.55,-28.55,16.4333,NA,"Wed, 10 Feb 2021 00:19:11",-29.09,14.24
East London,71.42,80,0,3.74,-33.0153,27.9116,ZA,"Wed, 10 Feb 2021 00:19:11",-50.39,38.03
Khatanga,-14.94,85,2,8.59,71.9667,102.5,RU,"Wed, 10 Feb 2021 05:19:11",74.1,96.63
Upernavik,10.4,75,17,1.25,72.7868,-56.1549,GL,"Tue, 09 Feb 2021 19:19:11",76.36,-55.59
Bida,84.78,14,78,0.92,9.0833,6.0167,NG,"Tue, 09 Feb 2021 23:19:11",9.4,6.22
Chokurdakh,-13.9,88,19,2.84,70.6333,147.9167,RU,"Wed, 10 Feb 2021 09:19:11",73.63,151.14
Kapaa,73.4,46,1,20.71,22.0752,-159.319,US,"Tue, 09 Feb 2021 12:19:11",38.89,-157.38
Kumul,33.67,78,74,5.99,42.8,93.45,CN,"Wed, 10 Feb 2021 06:19:12",42.47,91.52
Saint-Philippe,77.0,69,75,4.61,-21.3585,55.7679,RE,"Wed, 10 Feb 2021 02:19:12",-33.31,60.59
Yellowknife,-5.01,70,90,16.11,62.456,-114.3525,CA,"Tue, 09 Feb 2021 15:19:12",76.6,-109.27
Port Macquarie,66.2,94,75,6.91,-31.4333,152.9167,AU,"Wed, 10 Feb 2021 09:19:12",-36.36,161.4
Seydi,53.53,55,83,10.85,39.4816,62.9137,TM,"Wed, 10 Feb 2021 03:19:12",38.86,62.82
Wasilla,8.01,36,90,10.36,61.5814,-149.4394,US,"Tue, 09 Feb 2021 13:19:13",63.78,-151.51
Kodumudi,66.29,74,0,4.14,11.0775,77.8836,IN,"Wed, 10 Feb 2021 03:49:13",11.09,77.94
Machalí,84.2,45,0,8.43,-34.1833,-70.6667,CL,"Tue, 09 Feb 2021 19:17:24",-34.18,-69.52
Ushuaia,71.6,49,40,2.3,-54.8,-68.3,AR,"Tue, 09 Feb 2021 19:16:47",-85.97,-49.25
Leningradskiy,-26.32,83,13,10.63,69.3833,178.4167,RU,"Wed, 10 Feb 2021 10:19:13",86.82,179.35
Hithadhoo,82.33,79,81,12.77,-0.6,73.0833,MV,"Wed, 10 Feb 2021 03:19:13",-13.93,85.06
Thompson,-22.0,63,75,10.36,55.7435,-97.8558,CA,"Tue, 09 Feb 2021 16:15:22",77.93,-95.3
Ilulissat,19.4,45,0,6.91,69.2167,-51.1,GL,"Tue, 09 Feb 2021 19:19:14",79.96,-45.34
Sitka,17.6,45,1,14.97,57.0531,-135.33,US,"Tue, 09 Feb 2021 13:18:07",49.62,-143.22
Inta,-28.5,85,20,6.76,66.0317,60.1659,RU,"Wed, 10 Feb 2021 01:19:14",67.64,59.03
Biloela,73.13,63,0,10.98,-24.4167,150.5,AU,"Wed, 10 Feb 2021 08:19:15",-24.52,150.77
Svetlaya,6.28,86,0,7.47,46.5389,138.3297,RU,"Wed, 10 Feb 2021 08:19:15",45.46,137.8
Samdrup Jongkhar District,52.99,43,0,5.03,26.9167,91.6167,BT,"Wed, 10 Feb 2021 04:19:15",26.91,91.59
Pevek,-4.79,73,0,2.24,69.7008,170.3133,RU,"Wed, 10 Feb 2021 10:19:15",86.44,173.96
Davila,75.2,78,75,4.61,18.4726,120.5763,PH,"Wed, 10 Feb 2021 06:19:15",18.5,120.25
Rafaela,75.99,48,100,3.0,-31.2503,-61.4867,AR,"Tue, 09 Feb 2021 19:19:15",-31.94,-61.53
Cape Town,70.0,83,0,17.27,-33.9258,18.4232,ZA,"Wed, 10 Feb 2021 00:15:30",-59.99,-12.7
Vaini,78.8,94,90,23.02,-21.2,-175.2,TO,"Wed, 10 Feb 2021 11:19:16",-62.73,-169.07
Provideniya,-0.4,65,0,24.61,64.3833,-173.3,RU,"Wed, 10 Feb 2021 10:19:16",58.43,-170.46
Bonthe,80.02,82,94,9.04,7.5264,-12.505,SL,"Tue, 09 Feb 2021 22:19:16",2.14,-16.45
Atuona,79.3,77,23,19.35,-9.8,-139.0333,PF,"Tue, 09 Feb 2021 12:49:16",5.12,-134.45
Talcahuano,62.6,88,75,13.8,-36.7167,-73.1167,CL,"Tue, 09 Feb 2021 19:19:16",-35.13,-75.39
Lata,55.99,93,80,11.99,40.1629,-8.3327,SB,"Tue, 09 Feb 2021 22:19:16",-6.38,165.62
Lüderitz,69.84,65,0,12.24,-26.6481,15.1594,NA,"Wed, 10 Feb 2021 00:19:17",-34.91,-1.15
Taganak,77.0,94,40,6.35,6.0833,118.3,PH,"Wed, 10 Feb 2021 06:19:17",6.49,117.99
Airai,61.5,100,100,1.68,-8.9266,125.4092,PW,"Wed, 10 Feb 2021 07:19:17",15.51,145.38
Bredasdorp,60.8,88,16,1.14,-34.5322,20.0403,ZA,"Wed, 10 Feb 2021 00:19:17",-82.26,24.47
Piranshahr,39.65,68,30,5.39,36.701,45.1413,IR,"Wed, 10 Feb 2021 01:49:17",36.66,45.01
Miquelon,28.4,86,75,35.68,47.0975,-56.3814,PM,"Tue, 09 Feb 2021 19:19:17",47.92,-56.77
Panguna,76.15,88,51,3.24,-6.3164,155.4848,PG,"Wed, 10 Feb 2021 09:19:17",-6.95,154.3
Carnarvon,71.6,100,40,19.57,-24.8667,113.6333,AU,"Wed, 10 Feb 2021 06:19:18",-21.49,102.88
Busselton,54.0,98,84,10.69,-33.65,115.3333,AU,"Wed, 10 Feb 2021 06:19:18",-84.15,80.38
Poum,79.86,69,0,13.58,-20.2333,164.0167,NC,"Wed, 10 Feb 2021 09:19:18",-16.87,163.34
Thap Than,73.0,82,24,3.31,15.4606,99.8917,TH,"Wed, 10 Feb 2021 05:19:18",15.26,99.37
Rocha,67.73,88,59,12.39,-34.4833,-54.3333,UY,"Tue, 09 Feb 2021 19:19:18",-48.82,-40.98
Kousséri,77.0,11,29,9.22,12.0769,15.0306,CM,"Tue, 09 Feb 2021 23:19:18",11.69,15.21
Nelson Bay,66.0,100,90,5.75,-32.7167,152.15,AU,"Wed, 10 Feb 2021 09:19:19",-33.8,153.49
Mar del Plata,66.2,77,40,12.66,-38.0023,-57.5575,AR,"Tue, 09 Feb 2021 19:19:19",-57.56,-45.16
Saint Anthony,8.6,43,1,13.8,45.0205,-93.218,CA,"Tue, 09 Feb 2021 16:19:19",51.86,-52.79
Castelbuono,57.0,51,5,8.99,37.932,14.0886,IT,"Tue, 09 Feb 2021 23:19:19",37.81,14.03
Palafrugell,54.0,22,95,24.63,41.9174,3.1631,ES,"Tue, 09 Feb 2021 23:19:19",41.83,4.38
Maxixe,77.97,87,8,10.0,-23.8597,35.3472,MZ,"Wed, 10 Feb 2021 00:19:20",-24.19,34.78
Nanortalik,29.61,86,68,17.43,60.1432,-45.2371,GL,"Tue, 09 Feb 2021 19:19:20",50.65,-40.39
Nikolskoye,3.99,77,20,2.24,59.7035,30.7861,RU,"Wed, 10 Feb 2021 01:19:20",34.26,178.89
Butaritari,81.09,83,29,15.55,3.0707,172.7902,KI,"Wed, 10 Feb 2021 10:19:20",22.67,170.17
Comodoro Rivadavia,78.8,47,0,9.22,-45.8667,-67.5,AR,"Tue, 09 Feb 2021 19:15:01",-46.42,-68.79
Ahipara,68.76,91,100,8.37,-35.1667,173.1667,NZ,"Wed, 10 Feb 2021 11:19:20",-35.43,172.72
Jamestown,21.2,79,90,5.75,42.097,-79.2353,SH,"Tue, 09 Feb 2021 17:19:21",-20.22,-4.36
Katsuura,37.4,44,75,9.22,35.1333,140.3,JP,"Wed, 10 Feb 2021 07:17:01",18.86,151.53
Hong Kong,63.0,82,98,15.32,22.2855,114.1577,SC,"Wed, 10 Feb 2021 06:15:46",-6.35,61.24
Abhā,48.2,87,0,2.3,18.2164,42.5053,SA,"Wed, 10 Feb 2021 01:19:21",21.03,43.0
Hermanus,63.0,91,1,8.97,-34.4187,19.2345,ZA,"Wed, 10 Feb 2021 00:19:21",-52.68,10.85
Nhulunbuy,82.4,83,75,11.5,-12.2333,136.7667,AU,"Wed, 10 Feb 2021 07:49:21",-12.94,140.33
Hilo,72.0,83,90,10.36,19.7297,-155.09,US,"Tue, 09 Feb 2021 12:17:10",15.09,-154.36
North Bend,52.0,71,90,6.91,43.4065,-124.2243,US,"Tue, 09 Feb 2021 14:19:22",43.23,-132.04
Toccoa,68.0,42,1,6.91,34.5773,-83.3324,US,"Tue, 09 Feb 2021 17:19:22",34.59,-83.45
Mizdah,55.22,38,0,3.22,31.4451,12.9801,LY,"Wed, 10 Feb 2021 00:19:22",29.56,13.69
Lerwick,33.35,80,20,9.86,60.1545,-1.1494,GB,"Tue, 09 Feb 2021 22:19:22",60.0,1.65
Punta Arenas,68.0,56,0,8.05,-53.15,-70.9167,CL,"Tue, 09 Feb 2021 19:16:28",-85.24,-119.92
Belle Fourche,3.0,65,1,5.84,44.6714,-103.8522,US,"Tue, 09 Feb 2021 15:19:22",45.5,-104.57
Bengkulu,75.33,87,100,4.21,-3.8004,102.2655,ID,"Wed, 10 Feb 2021 05:19:22",-11.48,95.91
Lebu,65.19,73,5,12.88,-37.6167,-73.65,CL,"Tue, 09 Feb 2021 19:19:23",-36.91,-104.27
Iqaluit,5.0,78,20,0.74,63.7506,-68.5145,CA,"Tue, 09 Feb 2021 17:19:23",57.75,-70.31
Carhuamayo,49.84,60,96,13.11,-10.9167,-76.0333,PE,"Tue, 09 Feb 2021 17:19:23",-10.9,-75.84
Rovaniemi,-2.2,84,20,9.22,66.5,25.7167,FI,"Wed, 10 Feb 2021 00:19:23",66.3,26.08
Kyshtovka,-19.52,87,91,8.19,56.555,76.6271,RU,"Wed, 10 Feb 2021 05:19:23",57.4,76.42
Chennai,71.6,78,40,3.44,13.0878,80.2785,IN,"Wed, 10 Feb 2021 03:49:23",12.65,81.19
Cabra,52.0,77,93,3.0,37.4725,-4.4421,PH,"Tue, 09 Feb 2021 23:16:06",13.98,118.75
Isangel,84.2,70,40,6.91,-19.55,169.2667,VU,"Wed, 10 Feb 2021 09:19:24",-19.49,175.8
Vodnyy,-11.09,89,100,4.7,63.5046,53.4095,RU,"Wed, 10 Feb 2021 01:19:24",63.65,53.19
Novo Aripuanã,74.59,97,100,0.22,-5.1206,-60.3797,BR,"Tue, 09 Feb 2021 18:19:24",-5.11,-59.93
Sinnamary,77.23,80,99,11.95,5.3833,-52.95,GF,"Tue, 09 Feb 2021 19:19:24",10.7,-49.45
Port Alfred,68.0,93,23,2.26,-33.5906,26.891,ZA,"Wed, 10 Feb 2021 00:17:22",-60.35,42.09
Saint-François,37.4,100,75,5.75,46.4154,3.9054,GP,"Tue, 09 Feb 2021 23:19:24",17.23,-57.58
Ati,70.29,19,0,11.41,13.2154,18.3353,TD,"Tue, 09 Feb 2021 23:19:25",13.78,18.44
Mbekenyera,72.34,96,100,6.02,-10.0,38.9833,TZ,"Wed, 10 Feb 2021 01:19:25",-9.45,39.1
Kaitangata,55.99,93,100,5.01,-46.2817,169.8464,NZ,"Wed, 10 Feb 2021 11:19:25",-56.93,176.66
Cidreira,74.91,81,3,17.18,-30.1811,-50.2056,BR,"Tue, 09 Feb 2021 19:19:25",-59.84,-19.38
Alofi,78.8,21,75,9.22,-19.0595,-169.9187,NU,"Tue, 09 Feb 2021 11:19:25",-17.86,-166.65
Eyl,73.27,68,98,15.66,7.9803,49.8164,SO,"Wed, 10 Feb 2021 01:19:25",5.29,55.39
Tiksi,-15.63,82,100,3.24,71.6872,128.8694,RU,"Wed, 10 Feb 2021 07:19:25",71.63,127.25
Hobart,59.0,62,20,6.91,-42.8794,147.3294,AU,"Wed, 10 Feb 2021 09:19:26",-64.74,153.75
Venado Tuerto,81.0,70,87,5.01,-33.7456,-61.9688,AR,"Tue, 09 Feb 2021 19:19:26",-33.24,-62.32
Ancud,77.0,44,0,6.91,-41.8697,-73.8203,CL,"Tue, 09 Feb 2021 19:19:26",-41.0,-87.25
Biltine,66.56,23,38,12.21,14.5333,20.9167,TD,"Tue, 09 Feb 2021 23:19:26",14.78,20.29
Tuatapere,53.42,85,100,8.79,-46.1333,167.6833,NZ,"Wed, 10 Feb 2021 11:19:26",-54.98,157.08
Pochutla,87.01,58,20,11.5,15.7432,-96.4661,MX,"Tue, 09 Feb 2021 16:19:26",6.17,-97.23
Pisco,77.0,69,0,21.85,-13.7,-76.2167,PE,"Tue, 09 Feb 2021 17:19:27",-22.26,-87.15
Cayenne,78.8,73,40,5.75,4.9333,-52.3333,GF,"Tue, 09 Feb 2021 19:19:27",13.56,-45.37
Saldanha,66.2,77,0,14.97,-33.0117,17.9442,ZA,"Wed, 10 Feb 2021 00:19:27",-31.63,15.9
George Town,78.8,88,20,1.14,5.4112,100.3354,SH,"Wed, 10 Feb 2021 06:17:43",-8.97,-14.47
Beringovskiy,-9.02,90,96,12.62,63.05,179.3167,RU,"Wed, 10 Feb 2021 10:19:27",50.95,179.96
Pasinler,33.8,80,0,5.75,39.9803,41.6764,TR,"Wed, 10 Feb 2021 01:19:27",39.66,41.95
Nome,-0.4,46,1,17.27,64.5011,-165.4064,US,"Tue, 09 Feb 2021 13:17:10",69.18,-164.01
Bethel,28.4,86,90,3.85,41.3712,-73.414,US,"Tue, 09 Feb 2021 17:19:28",46.53,-167.61
Castro,63.55,86,100,3.69,-24.7911,-50.0119,CL,"Tue, 09 Feb 2021 19:19:28",-44.69,-98.0
Matara,73.17,87,69,4.88,5.9485,80.5353,LK,"Wed, 10 Feb 2021 03:49:28",0.73,80.7
Yarmouth,33.8,86,90,6.91,41.7057,-70.2286,CA,"Tue, 09 Feb 2021 17:19:28",41.42,-67.17
Chui,70.11,81,0,7.25,-33.6971,-53.4616,UY,"Tue, 09 Feb 2021 19:19:28",-60.76,-26.96
Tasiilaq,15.8,62,90,16.11,65.6145,-37.6368,GL,"Tue, 09 Feb 2021 19:19:29",53.62,-32.07
Mwinilunga,63.64,96,100,5.03,-11.7358,24.4293,ZM,"Wed, 10 Feb 2021 00:19:29",-11.89,25.11
Tessalit,68.45,19,0,9.46,20.1986,1.0114,ML,"Tue, 09 Feb 2021 22:19:29",20.41,0.37
Tautira,82.4,65,75,8.05,-17.7333,-149.15,PF,"Tue, 09 Feb 2021 12:19:29",-18.09,-148.42
Wilmington,66.99,82,1,4.61,34.2257,-77.9447,US,"Tue, 09 Feb 2021 17:06:42",30.81,-75.5
Dourbali,73.71,17,1,11.72,11.8091,15.8632,TD,"Tue, 09 Feb 2021 23:19:29",12.17,15.76
Kavaratti,80.71,65,0,5.32,10.5669,72.642,IN,"Wed, 10 Feb 2021 03:49:30",8.16,63.54
Esperance,57.2,88,0,4.61,-33.8667,121.9,AU,"Wed, 10 Feb 2021 06:19:30",-35.88,124.59
Constitución,67.05,72,12,7.96,-35.3333,-72.4167,CL,"Tue, 09 Feb 2021 19:19:30",-32.24,-77.91
Dikson,-29.4,86,97,10.36,73.5069,80.5464,RU,"Wed, 10 Feb 2021 05:19:30",72.21,77.95
Rādhanpur,63.66,56,85,7.25,23.8333,71.6,IN,"Wed, 10 Feb 2021 03:49:30",24.02,71.64
Qaanaaq,15.91,73,0,3.89,77.484,-69.3632,GL,"Tue, 09 Feb 2021 18:19:30",78.77,-72.0
Tuktoyaktuk,-38.2,74,20,10.36,69.4541,-133.0374,CA,"Tue, 09 Feb 2021 15:19:31",81.76,-120.76
Vestmannaeyjar,38.25,76,100,13.04,63.4427,-20.2734,IS,"Tue, 09 Feb 2021 22:19:31",55.83,-22.07
Linxia Chengguanzhen,32.25,77,0,0.81,35.6003,103.2064,CN,"Wed, 10 Feb 2021 06:19:31",35.28,103.71
Mastic Beach,33.8,86,90,12.66,40.7668,-72.8521,US,"Tue, 09 Feb 2021 17:19:31",40.16,-72.03
Hue,64.4,94,75,5.75,16.4667,107.6,VN,"Wed, 10 Feb 2021 05:19:31",16.64,107.13
New Norfolk,59.0,61,14,1.01,-42.7826,147.0587,AU,"Wed, 10 Feb 2021 09:19:31",-48.61,139.79
Rapid Valley,3.0,71,1,4.72,44.0625,-103.1463,US,"Tue, 09 Feb 2021 15:18:10",43.76,-102.61
Dogbo,82.0,73,14,6.73,6.8167,1.7833,BJ,"Tue, 09 Feb 2021 23:16:26",6.82,1.97
Villazón,52.9,66,98,16.04,-22.0866,-65.5942,BO,"Tue, 09 Feb 2021 18:19:32",-22.3,-66.72
Muisne,78.8,89,75,8.05,0.6,-80.0333,EC,"Tue, 09 Feb 2021 17:19:32",3.31,-82.74
Yangambi,72.75,50,100,1.23,0.8102,24.4336,CD,"Wed, 10 Feb 2021 00:19:32",-0.47,23.9
Batu,77.0,94,20,4.61,-7.87,112.5283,ID,"Wed, 10 Feb 2021 05:19:32",-7.8,112.55
Whitianga,71.01,90,99,8.99,-36.8333,175.7,NZ,"Wed, 10 Feb 2021 11:19:32",-34.96,177.41
Shimoda,35.01,72,66,5.7,34.6667,138.95,JP,"Wed, 10 Feb 2021 07:19:33",26.96,141.65
Bismarck,6.8,40,1,16.11,46.8083,-100.7837,US,"Tue, 09 Feb 2021 16:19:33",47.61,-100.18
Henties Bay,66.99,88,45,12.01,-22.116,14.2845,NA,"Wed, 10 Feb 2021 00:19:33",-22.89,6.15
Avarua,84.2,74,100,8.05,-21.2078,-159.775,CK,"Tue, 09 Feb 2021 12:19:33",-54.57,-164.18
Longyearbyen,15.8,86,75,6.91,78.2186,15.6401,SJ,"Tue, 09 Feb 2021 23:15:17",88.67,14.25
Don Luan,73.06,81,39,2.62,11.5333,106.9167,VN,"Wed, 10 Feb 2021 05:19:34",11.99,106.5
Berlevåg,21.2,79,75,17.27,70.8578,29.0864,NO,"Tue, 09 Feb 2021 23:19:34",83.14,32.13
Bagdarin,7.0,93,100,1.03,54.4333,113.6,RU,"Wed, 10 Feb 2021 06:19:34",54.93,114.61
Awjilah,60.64,30,100,7.54,29.1081,21.2869,LY,"Wed, 10 Feb 2021 00:19:34",24.75,19.75
Torbay,34.0,86,90,32.21,47.6666,-52.7314,CA,"Tue, 09 Feb 2021 18:49:34",35.3,-46.37
Evensk,15.17,89,100,25.52,61.95,159.2333,RU,"Wed, 10 Feb 2021 09:19:34",61.25,158.76
Lučani,44.6,75,0,2.3,43.8608,20.1381,RS,"Tue, 09 Feb 2021 23:19:35",44.0,20.1
Ust'-Koksa,-7.01,81,9,2.73,50.2696,85.6108,RU,"Wed, 10 Feb 2021 05:19:35",49.54,85.58
Greece,25.0,74,75,5.75,43.2098,-77.6931,US,"Tue, 09 Feb 2021 17:18:43",43.36,-77.71
Tarancón,46.99,87,75,20.71,40.0085,-3.0073,ES,"Tue, 09 Feb 2021 23:19:35",40.19,-2.89
Meulaboh,77.45,87,22,3.13,4.1363,96.1285,ID,"Wed, 10 Feb 2021 05:19:35",-3.31,89.44
Nabire,77.54,84,88,2.93,-3.3667,135.4833,ID,"Wed, 10 Feb 2021 07:16:25",-5.02,137.55
Namatanai,81.12,80,96,4.32,-3.6667,152.4333,PG,"Wed, 10 Feb 2021 08:19:36",-1.26,154.41
Mbandaka,77.04,45,96,2.57,0.0487,18.2603,CD,"Tue, 09 Feb 2021 23:19:36",0.37,19.49
Thio,80.6,78,40,8.05,-21.6167,166.2167,NC,"Wed, 10 Feb 2021 09:19:36",-21.56,166.09
Caravelas,74.61,87,95,5.35,-17.7125,-39.2481,BR,"Tue, 09 Feb 2021 19:19:36",-21.94,-24.53
Araouane,69.89,18,41,10.04,18.9048,-3.5265,ML,"Tue, 09 Feb 2021 22:19:36",19.42,-3.67
Dukat,0.12,92,76,10.67,62.55,155.55,RU,"Wed, 10 Feb 2021 09:19:36",63.33,155.22
Agnibilékrou,79.92,72,40,6.17,7.1344,-3.2047,CI,"Tue, 09 Feb 2021 22:19:37",7.28,-3.21
Aksu,29.57,87,82,2.28,41.1231,80.2644,CN,"Wed, 10 Feb 2021 06:19:37",38.63,81.95
Whyalla,73.4,49,0,0.67,-33.0333,137.5833,AU,"Wed, 10 Feb 2021 08:49:37",-33.53,136.94
Kondoa,62.89,96,96,3.51,-4.9,35.7833,TZ,"Wed, 10 Feb 2021 01:19:37",-4.96,36.03
Faanui,82.06,73,0,13.82,-16.4833,-151.75,PF,"Tue, 09 Feb 2021 12:19:37",-9.98,-159.99
Malko Tarnovo,57.2,82,0,10.36,41.9833,27.5333,BG,"Wed, 10 Feb 2021 00:19:37",41.92,27.44
Dingle,73.49,94,100,4.38,10.9995,122.6711,IE,"Wed, 10 Feb 2021 06:19:37",51.48,-17.2
Óbidos,78.6,88,99,0.98,-1.9175,-55.5181,BR,"Tue, 09 Feb 2021 19:17:40",-1.83,-55.55
Bone,12.0,90,54,1.99,51.9669,12.1396,ID,"Tue, 09 Feb 2021 23:19:38",-4.16,121.06
Mahabalipuram,71.6,78,40,3.44,12.6264,80.1722,IN,"Wed, 10 Feb 2021 03:49:38",11.5,82.63
Gobabis,69.75,73,100,9.06,-22.45,18.9667,NA,"Wed, 10 Feb 2021 00:19:38",-22.44,20.2
Río Gallegos,75.2,33,0,11.5,-51.6226,-69.2181,AR,"Tue, 09 Feb 2021 19:19:39",-51.32,-66.83
Lagoa,59.43,95,100,20.85,39.05,-27.9833,PT,"Tue, 09 Feb 2021 21:19:39",40.97,-27.16
São José da Coroa Grande,79.18,72,2,6.22,-8.8978,-35.1478,BR,"Tue, 09 Feb 2021 19:19:39",-14.08,-25.51
Manado,75.2,94,20,1.95,1.487,124.8455,ID,"Wed, 10 Feb 2021 06:19:39",2.94,123.15
Karratha,80.73,51,3,16.87,-20.7377,116.8463,AU,"Wed, 10 Feb 2021 06:19:39",-20.57,116.02
Kibaya,60.69,100,100,3.87,-5.3,36.5667,TZ,"Wed, 10 Feb 2021 01:19:39",-5.5,36.34
St. George's,80.6,69,20,18.41,12.0564,-61.7485,GF,"Tue, 09 Feb 2021 18:19:40",4.11,-51.63
East Stroudsburg,30.99,80,100,4.09,40.9995,-75.1813,US,"Tue, 09 Feb 2021 17:19:40",41.04,-75.1
Waipawa,62.6,82,75,21.85,-41.4122,175.5153,NZ,"Wed, 10 Feb 2021 11:19:40",-42.43,175.58
Camopi,73.89,93,73,4.09,3.1655,-52.3158,GF,"Tue, 09 Feb 2021 19:19:40",1.51,-54.22
Muromtsevo,-17.18,88,100,6.82,56.3724,75.2418,RU,"Wed, 10 Feb 2021 04:19:41",56.64,75.39
Petropavlovsk-Kamchatskiy,26.6,100,90,4.47,53.0452,158.6483,RU,"Wed, 10 Feb 2021 10:19:41",50.4,162.21
Shirokiy,-7.02,92,86,0.4,49.758,129.523,RU,"Wed, 10 Feb 2021 07:19:41",63.73,148.41
San Felipe,74.86,74,51,7.49,10.3399,-68.7425,MX,"Tue, 09 Feb 2021 18:19:41",31.32,-114.94
Mahébourg,77.0,83,40,4.61,-20.4081,57.7,MU,"Wed, 10 Feb 2021 02:19:41",-48.0,78.99
Fortuna,55.99,76,20,4.32,40.5982,-124.1573,US,"Tue, 09 Feb 2021 14:19:42",35.9,-141.89
Lubao,77.0,83,90,4.61,14.9167,120.55,CD,"Wed, 10 Feb 2021 06:19:42",-4.48,25.26
Clovis,66.99,52,90,5.75,36.8252,-119.7029,US,"Tue, 09 Feb 2021 14:19:42",34.57,-103.24
Cabo San Lucas,73.99,60,1,13.8,22.8909,-109.9124,MX,"Tue, 09 Feb 2021 15:17:19",9.53,-118.36
Cherskiy,-3.6,84,0,3.65,68.75,161.3,RU,"Wed, 10 Feb 2021 09:19:42",81.62,160.83
Bambous Virieux,77.0,83,40,4.61,-20.3428,57.7575,MU,"Wed, 10 Feb 2021 02:19:42",-24.48,62.71
Severo-Kuril'sk,26.64,93,100,17.76,50.6789,156.125,RU,"Wed, 10 Feb 2021 09:19:43",37.54,161.49
Tarumovka,41.4,94,77,4.59,44.0761,46.5361,RU,"Wed, 10 Feb 2021 01:19:43",44.18,46.34
"Leibnitz, Styria",35.01,98,100,2.46,46.7816,15.5384,AT,"Tue, 09 Feb 2021 23:19:43",46.83,15.5
Bereda,44.01,97,99,11.01,43.2686,-7.5406,SO,"Tue, 09 Feb 2021 23:19:43",14.46,51.09
Kalangala,75.09,75,92,9.73,-0.3089,32.225,UG,"Wed, 10 Feb 2021 01:19:43",-0.66,33.18
Coyhaique,89.6,23,20,10.36,-45.5752,-72.0662,CL,"Tue, 09 Feb 2021 19:19:43",-50.07,-82.52
Visnes,8.6,72,37,4.61,59.3556,5.2242,NO,"Tue, 09 Feb 2021 23:19:44",58.05,3.24
Nyurba,-25.56,85,7,6.08,63.2842,118.3319,RU,"Wed, 10 Feb 2021 07:19:44",67.18,117.62
Dera Bugti,66.74,24,0,18.19,29.0307,69.151,PK,"Wed, 10 Feb 2021 03:19:44",29.32,69.38
Nizwá,61.48,50,100,2.71,22.9333,57.5333,OM,"Wed, 10 Feb 2021 02:19:44",20.96,56.96
Jumla,44.47,50,100,2.73,29.2747,82.1838,NP,"Wed, 10 Feb 2021 04:04:44",31.28,83.83
Esperanza,82.0,53,86,5.99,19.5847,-70.9849,PH,"Tue, 09 Feb 2021 18:19:44",10.72,124.46
São Lourenço da Mata,80.6,65,20,10.36,-8.0022,-35.0183,BR,"Tue, 09 Feb 2021 19:19:44",-8.04,-35.08
Oyama,42.01,68,20,1.14,36.3,139.8,JP,"Wed, 10 Feb 2021 07:19:45",30.62,138.94
Trairi,77.65,87,100,5.01,-3.2778,-39.2689,BR,"Tue, 09 Feb 2021 19:19:45",2.97,-35.87
Emerald,77.0,69,90,11.5,-23.5333,148.1667,AU,"Wed, 10 Feb 2021 08:19:45",-24.34,143.49
Labuhan,78.08,85,100,10.25,-6.8844,112.2051,ID,"Wed, 10 Feb 2021 05:19:45",-12.93,98.81
Verkhnyaya Salda,-17.23,87,97,6.04,58.0456,60.5533,RU,"Wed, 10 Feb 2021 03:19:45",58.17,60.62
Inuvik,-32.8,68,23,2.3,68.3499,-133.7218,CA,"Tue, 09 Feb 2021 15:19:45",67.99,-132.36
Hambantota,73.85,76,76,17.67,6.1241,81.1185,LK,"Wed, 10 Feb 2021 03:49:46",-5.94,86.93
Mehamn,23.0,58,40,25.32,71.0357,27.8492,NO,"Tue, 09 Feb 2021 23:19:46",77.93,26.8
Aleksinac,50.0,71,40,3.44,43.5417,21.7078,RS,"Tue, 09 Feb 2021 23:19:46",43.79,21.69
Nynäshamn,16.0,55,100,10.67,58.9034,17.9479,SE,"Tue, 09 Feb 2021 23:19:46",58.28,17.85
Geraldton,60.8,88,3,8.05,-28.7667,114.6,CA,"Wed, 10 Feb 2021 06:19:46",55.54,-88.04
Kurchum,-1.19,83,7,4.23,48.5722,83.6542,KZ,"Wed, 10 Feb 2021 04:19:47",47.91,83.54
Luwuk,78.73,78,99,0.09,-0.9516,122.7875,ID,"Wed, 10 Feb 2021 06:19:47",-1.9,124.32
Thinadhoo,81.57,80,86,14.25,0.5333,72.9333,MV,"Wed, 10 Feb 2021 03:19:47",-0.89,64.2
Ostrovnoy,3.81,89,97,13.56,68.0531,39.5131,RU,"Wed, 10 Feb 2021 01:19:47",67.75,40.55
Shouguang,39.99,51,0,6.62,36.88,118.7375,CN,"Wed, 10 Feb 2021 06:19:48",37.29,118.94
Bayshore Gardens,78.01,83,1,5.75,27.4253,-82.5904,US,"Tue, 09 Feb 2021 17:19:48",26.16,-85.18
Blind River,19.4,67,90,10.36,46.1834,-82.9582,CA,"Tue, 09 Feb 2021 17:19:48",46.05,-82.84
Carballo,45.0,93,100,1.01,43.213,-8.691,ES,"Tue, 09 Feb 2021 23:16:20",45.3,-10.97
Château-Gontier,35.01,93,90,12.66,47.8333,-0.7,FR,"Tue, 09 Feb 2021 23:19:48",47.87,-0.65
Verkhnyaya Khava,8.6,92,90,2.24,51.8404,39.9413,RU,"Wed, 10 Feb 2021 01:19:48",52.05,40.13
Princeton,82.4,61,40,9.22,25.5384,-80.4089,CA,"Tue, 09 Feb 2021 17:17:31",49.3,-120.12
Port Lincoln,72.46,55,3,10.25,-34.7333,135.8667,AU,"Wed, 10 Feb 2021 08:49:49",-38.98,134.43
Barcelos,53.6,87,75,14.97,41.5388,-8.6151,BR,"Tue, 09 Feb 2021 22:19:49",1.34,-62.67
College,-18.4,63,20,4.61,64.8569,-147.8028,US,"Tue, 09 Feb 2021 13:19:49",67.19,-148.76
Great Bend,15.8,79,90,9.22,38.3645,-98.7648,US,"Tue, 09 Feb 2021 16:19:49",37.7,-98.88
Halmstad,21.2,73,100,11.5,56.6745,12.8568,SE,"Tue, 09 Feb 2021 23:19:49",56.56,12.83
Cimarron Hills,37.99,68,75,6.91,38.8586,-104.6989,US,"Tue, 09 Feb 2021 15:19:50",38.8,-103.88
Antofagasta,68.0,73,20,14.97,-23.65,-70.4,CL,"Tue, 09 Feb 2021 19:19:50",-24.08,-70.48
Vanimo,79.27,81,45,4.03,-2.6741,141.3028,PG,"Wed, 10 Feb 2021 08:19:50",4.56,142.74
Naze,53.6,76,75,3.44,28.3667,129.4833,JP,"Wed, 10 Feb 2021 07:19:50",20.45,138.48
Taoudenni,67.19,22,0,10.36,22.6783,-3.9836,ML,"Tue, 09 Feb 2021 22:19:50",23.66,-4.67
Darłowo,19.0,79,56,8.57,54.421,16.4107,PL,"Tue, 09 Feb 2021 23:19:50",54.26,16.51
Alpena,17.6,41,1,10.36,45.0617,-83.4327,US,"Tue, 09 Feb 2021 17:16:38",44.88,-82.79
Challans,42.8,100,90,6.91,46.8436,-1.8749,FR,"Tue, 09 Feb 2021 23:19:51",45.59,-2.95
Manokwari,78.33,79,100,4.27,-0.8667,134.0833,ID,"Wed, 10 Feb 2021 07:19:51",1.68,134.66
Banfora,80.65,16,65,2.46,10.6333,-4.7667,BF,"Tue, 09 Feb 2021 22:19:51",10.2,-4.99
Kopavogur,32.0,80,75,11.5,64.1123,-21.913,IS,"Tue, 09 Feb 2021 22:19:51",64.18,-21.63
Road Town,78.8,69,40,14.97,18.4167,-64.6167,VG,"Tue, 09 Feb 2021 18:19:52",20.88,-64.56
Perth,62.6,72,75,9.22,-31.9333,115.8333,AU,"Wed, 10 Feb 2021 06:15:04",-30.63,115.64
Lovozero,7.88,93,69,8.5,68.005,35.0117,RU,"Wed, 10 Feb 2021 01:19:52",67.41,36.29
Jaraguá,69.8,83,75,1.14,-15.7569,-49.3344,BR,"Tue, 09 Feb 2021 19:19:52",-15.87,-49.32
Hammerfest,21.2,79,75,13.8,70.6634,23.6821,NO,"Tue, 09 Feb 2021 23:19:52",74.82,21.76
Solone,30.2,93,90,4.47,48.2081,34.8721,UA,"Wed, 10 Feb 2021 00:19:52",48.36,34.72
São Filipe,70.3,75,100,8.05,14.8961,-24.4956,CV,"Tue, 09 Feb 2021 21:19:52",10.04,-35.65
Kieta,82.06,81,56,10.92,-6.2167,155.6333,PG,"Wed, 10 Feb 2021 09:19:53",-1.83,159.75
Dzilam González,86.94,51,30,8.48,21.2833,-88.9333,MX,"Tue, 09 Feb 2021 16:19:53",23.71,-88.62
Lompoc,57.99,67,1,9.22,34.6391,-120.4579,US,"Tue, 09 Feb 2021 14:19:53",23.7,-129.3
Gogrial,71.31,22,25,4.56,8.5332,28.1004,SD,"Wed, 10 Feb 2021 00:19:53",8.29,27.76
Gazli,48.4,63,69,11.9,40.1333,63.45,UZ,"Wed, 10 Feb 2021 03:19:53",40.85,63.83
Gao,76.26,15,58,11.03,16.6362,1.637,ML,"Tue, 09 Feb 2021 22:19:54",17.74,-0.68
San Patricio,80.6,73,40,16.11,28.017,-97.5169,MX,"Tue, 09 Feb 2021 16:19:54",15.45,-106.47
Valle Hermoso,82.4,69,75,13.8,25.6667,-97.8333,MX,"Tue, 09 Feb 2021 16:19:54",25.46,-97.5
Baykit,-1.26,87,100,7.2,61.67,96.37,RU,"Wed, 10 Feb 2021 05:19:54",65.83,94.41
Itarema,77.09,89,100,3.65,-2.9248,-39.9167,BR,"Tue, 09 Feb 2021 19:16:21",8.66,-36.22
São João da Barra,73.4,94,90,6.91,-21.6403,-41.0511,BR,"Tue, 09 Feb 2021 19:19:54",-32.61,-22.34
Preston,30.2,80,0,11.5,53.7667,-2.7167,US,"Tue, 09 Feb 2021 22:15:06",42.14,-112.01
Half Moon Bay,60.01,82,40,5.75,37.4636,-122.4286,US,"Tue, 09 Feb 2021 14:16:25",32.38,-134.74
Tongchuanshi,39.65,68,0,2.46,35.0806,109.0897,CN,"Wed, 10 Feb 2021 06:19:55",35.08,108.17
Arrondissement de Nogent-le-Rotrou,30.2,93,100,14.97,48.3333,1.0,FR,"Tue, 09 Feb 2021 23:19:56",48.37,0.92
Laas,41.0,86,75,4.18,46.6166,10.7002,CN,"Tue, 09 Feb 2021 23:19:56",31.28,87.66
Tongliao,11.64,92,0,6.02,43.6125,122.2653,CN,"Wed, 10 Feb 2021 06:19:56",43.08,122.76
Kenai,9.0,78,90,11.5,60.5544,-151.2583,US,"Tue, 09 Feb 2021 13:19:56",64.25,-155.49
Adrar,65.07,24,44,8.77,20.5022,-10.0711,DZ,"Tue, 09 Feb 2021 22:19:56",26.74,-2.47
Nizhniy Baskunchak,27.03,97,100,18.52,48.2198,46.8311,RU,"Wed, 10 Feb 2021 02:19:56",48.41,46.92
Mayna,0.9,93,100,9.22,54.1135,47.6231,RU,"Wed, 10 Feb 2021 02:19:57",52.49,91.93
Ardakān,50.0,40,0,4.61,32.31,54.0175,IR,"Wed, 10 Feb 2021 01:49:57",33.3,55.1
Oddur,71.92,47,71,19.04,4.1213,43.8894,SO,"Wed, 10 Feb 2021 01:19:57",6.31,43.63
Grindavik,30.2,100,90,12.66,63.8424,-22.4338,IS,"Tue, 09 Feb 2021 22:19:57",54.51,-23.99
Russell,64.4,77,90,4.61,32.3502,-85.1999,NZ,"Tue, 09 Feb 2021 16:19:57",-33.58,175.88
Kamenka,10.99,89,100,12.62,51.3223,42.7678,RU,"Wed, 10 Feb 2021 01:19:57",69.72,43.46
Saint George,63.0,21,20,3.44,37.1041,-113.5841,BM,"Tue, 09 Feb 2021 15:15:54",35.57,-65.51
Ribeira Grande,62.6,94,75,25.32,38.5167,-28.7,PT,"Tue, 09 Feb 2021 21:19:58",40.16,-30.71
Arraial do Cabo,73.4,88,90,3.44,-22.9661,-42.0278,BR,"Tue, 09 Feb 2021 19:19:58",-57.34,-17.24
Maumere,80.17,76,100,0.31,-8.6199,122.2111,ID,"Wed, 10 Feb 2021 06:19:58",-9.67,122.32
Verkhnyaya Inta,-28.19,85,60,6.4,65.9811,60.3094,RU,"Wed, 10 Feb 2021 01:19:58",64.39,62.18
Aasiaat,12.63,88,0,8.95,68.7098,-52.8699,GL,"Tue, 09 Feb 2021 19:19:58",71.42,-53.02
Novoil'insk,8.73,93,95,1.07,51.6829,108.7143,RU,"Wed, 10 Feb 2021 06:19:59",51.55,108.75
Kondinskoye,-26.91,86,13,5.73,59.6481,67.41,RU,"Wed, 10 Feb 2021 03:19:59",60.33,67.08
Lufilufi,80.6,89,90,3.44,-13.8745,-171.5986,WS,"Wed, 10 Feb 2021 12:19:59",-6.58,-167.69
Strezhevoy,-16.6,76,90,4.47,60.7333,77.5889,RU,"Wed, 10 Feb 2021 05:19:59",62.18,79.88
Vila,45.0,95,100,28.01,42.0304,-8.1588,VU,"Tue, 09 Feb 2021 22:19:59",-15.17,172.4
Senneterre,12.2,73,75,3.44,48.3835,-77.2328,CA,"Tue, 09 Feb 2021 17:19:59",48.59,-75.87
Kuandian,18.48,95,0,2.3,40.7286,124.7847,CN,"Wed, 10 Feb 2021 06:20:00",40.47,124.7
Hollister,61.0,63,1,3.44,36.8525,-121.4016,US,"Tue, 09 Feb 2021 14:20:00",36.8,-121.23
Måløy,25.0,68,0,10.36,61.9353,5.1136,NO,"Tue, 09 Feb 2021 23:20:00",62.83,2.23
Beauceville,15.8,67,80,1.14,46.2179,-70.7787,CA,"Tue, 09 Feb 2021 17:20:00",46.17,-70.76
Talnakh,-12.41,87,95,1.1,69.4865,88.3972,RU,"Wed, 10 Feb 2021 05:20:01",74.36,93.68
Bud,26.01,77,99,8.08,39.447,-86.1758,NO,"Tue, 09 Feb 2021 17:20:01",72.33,2.47
West Melbourne,77.0,88,1,8.05,28.0717,-80.6534,US,"Tue, 09 Feb 2021 17:15:27",27.96,-80.73
Omboué,77.18,90,99,4.05,-1.5746,9.2618,GA,"Tue, 09 Feb 2021 23:20:01",-4.99,3.16
Sakakah,57.2,58,0,6.91,29.9697,40.2064,SA,"Wed, 10 Feb 2021 01:20:01",28.13,40.27
Dhanera,58.57,35,97,2.42,24.5167,72.0167,IN,"Wed, 10 Feb 2021 03:50:02",24.47,71.83
Ternate,80.74,80,100,5.37,0.8,127.4,ID,"Wed, 10 Feb 2021 07:20:02",1.46,126.55
Iporá,72.73,83,0,2.71,-16.4419,-51.1178,BR,"Tue, 09 Feb 2021 19:20:02",-15.98,-51.22
Praia da Vitória,62.6,88,75,25.46,38.7333,-27.0667,PT,"Tue, 09 Feb 2021 21:20:02",50.64,-22.83
Corinth,51.01,70,24,1.99,37.9407,22.9573,US,"Wed, 10 Feb 2021 00:17:36",35.06,-88.63
Amapá,73.9,96,98,4.25,1.0,-52.0,BR,"Tue, 09 Feb 2021 19:20:03",3.6,-47.35
Balkanabat,50.41,68,0,1.86,39.5108,54.3671,TM,"Wed, 10 Feb 2021 03:20:03",40.14,53.87
Parrita,75.2,60,40,18.41,9.5201,-84.3225,CR,"Tue, 09 Feb 2021 16:18:26",7.59,-85.76
Salinópolis,79.02,87,100,10.27,-0.6136,-47.3561,BR,"Tue, 09 Feb 2021 19:20:03",7.95,-43.14
Shiyan,44.69,60,100,2.08,32.6475,110.7781,CN,"Wed, 10 Feb 2021 06:20:04",32.1,110.71
Kruisfontein,64.0,90,11,2.95,-34.0033,24.7314,ZA,"Wed, 10 Feb 2021 00:20:04",-72.94,26.83
Yeppoon,77.0,61,75,6.91,-23.1333,150.7333,AU,"Wed, 10 Feb 2021 08:20:04",-21.89,150.45
Cestas,45.0,93,40,5.75,44.7435,-0.6791,FR,"Tue, 09 Feb 2021 23:20:04",44.49,-0.64
Ayagoz,-10.88,89,21,9.24,47.9714,80.4392,KZ,"Wed, 10 Feb 2021 04:20:04",48.01,81.19
Aitape,79.88,80,78,5.28,-3.1374,142.3475,PG,"Wed, 10 Feb 2021 08:20:05",-0.88,143.73
Homer,25.0,68,90,4.61,59.6425,-151.5483,US,"Tue, 09 Feb 2021 13:20:05",58.74,-150.61
Nouadhibou,64.4,77,0,16.11,20.931,-17.0347,MR,"Tue, 09 Feb 2021 22:20:05",20.18,-20.44
Orange,61.0,63,90,3.44,33.7,-117.7675,AU,"Tue, 09 Feb 2021 14:18:37",-33.24,148.99
Gold Coast,75.0,64,75,10.36,-28.0,153.4333,AU,"Wed, 10 Feb 2021 08:20:05",-27.75,154.06
Antalaha,75.51,92,100,4.05,-14.9003,50.2788,MG,"Wed, 10 Feb 2021 01:17:09",-13.75,55.75
Anchorage,7.0,51,90,10.36,61.2181,-149.9003,US,"Tue, 09 Feb 2021 13:20:05",63.73,-151.79
Aklavik,-32.8,68,0,2.3,68.2191,-135.0107,CA,"Tue, 09 Feb 2021 15:20:06",74.18,-137.49
Sun Valley,50.0,53,75,6.91,39.5963,-119.776,US,"Tue, 09 Feb 2021 14:20:06",39.85,-119.72
Korampallam,71.85,72,88,10.6,8.7667,78.1,IN,"Wed, 10 Feb 2021 03:50:06",8.72,78.46
Fairbanks,-18.4,57,1,4.12,64.8378,-147.7164,US,"Tue, 09 Feb 2021 13:20:02",64.21,-147.84
Lavrentiya,-11.67,79,0,15.21,65.5833,-171.0,RU,"Wed, 10 Feb 2021 10:20:06",66.35,-168.58
Sucha Beskidzka,24.8,80,75,3.44,49.7419,19.5943,PL,"Tue, 09 Feb 2021 23:20:06",49.86,19.62
Puerto Cabezas,82.4,83,75,6.91,14.0351,-83.3888,NI,"Tue, 09 Feb 2021 16:20:07",13.97,-82.1
Tawang Town,33.57,71,0,3.91,27.5833,91.8667,IN,"Wed, 10 Feb 2021 03:50:07",28.28,92.05
Pacific Grove,57.0,76,75,9.22,36.6177,-121.9166,US,"Tue, 09 Feb 2021 14:15:24",31.29,-131.4
Norman Wells,-34.6,67,20,5.75,65.282,-126.8329,CA,"Tue, 09 Feb 2021 15:20:07",68.9,-125.11
Kavieng,83.5,77,100,9.89,-2.5744,150.7967,PG,"Wed, 10 Feb 2021 08:20:07",13.94,153.34
Shubarkuduk,-8.23,83,90,8.88,49.1447,56.4872,KZ,"Wed, 10 Feb 2021 03:20:08",47.9,55.95
Atar,65.44,25,0,8.21,20.5169,-13.0499,MR,"Tue, 09 Feb 2021 22:20:08",21.87,-9.76
Harper,80.01,84,100,6.31,4.375,-7.7169,LR,"Tue, 09 Feb 2021 22:20:08",2.54,-7.77
Paramirim,72.19,83,22,3.06,-13.4425,-42.2389,BR,"Tue, 09 Feb 2021 19:20:08",-13.05,-42.0
Bilma,69.98,19,3,9.84,18.6853,12.9164,NE,"Tue, 09 Feb 2021 23:20:08",21.3,14.01
Saint-Tite,16.0,73,99,3.44,46.7334,-72.5658,CA,"Tue, 09 Feb 2021 17:20:08",46.8,-72.65
Stephenville,37.4,75,90,8.05,32.2207,-98.2023,CA,"Tue, 09 Feb 2021 16:20:09",49.12,-59.18
Vila Velha,78.01,94,40,3.44,-20.3297,-40.2925,BR,"Tue, 09 Feb 2021 19:20:09",-25.31,-27.41
Rantepao,65.03,77,83,3.31,-2.9701,119.8978,ID,"Wed, 10 Feb 2021 06:20:09",-2.65,120.37
Quzhou,45.84,87,100,4.76,28.9594,118.8686,CN,"Wed, 10 Feb 2021 06:20:09",28.39,118.92
Salalah,78.8,41,0,13.8,17.0151,54.0924,OM,"Wed, 10 Feb 2021 02:20:09",19.74,52.44
Neiafu,77.0,94,90,13.8,-18.65,-173.9833,TO,"Wed, 10 Feb 2021 11:20:09",-17.99,-173.88
Avera,68.0,82,90,3.44,33.194,-82.5271,PF,"Tue, 09 Feb 2021 17:20:09",-33.21,-157.0
Bubaque,78.53,67,100,16.67,11.2833,-15.8333,GW,"Tue, 09 Feb 2021 22:20:10",4.62,-20.74
Port Said,62.6,72,0,3.44,31.2565,32.2841,EG,"Wed, 10 Feb 2021 00:20:10",31.69,32.92
Presidencia Roque Sáenz Peña,69.01,92,72,1.01,-26.7852,-60.4388,AR,"Tue, 09 Feb 2021 19:20:10",-26.03,-61.06
Arkhara,-9.29,91,95,1.14,49.4212,130.0842,RU,"Wed, 10 Feb 2021 07:20:10",49.67,130.65
Makkah al Mukarramah,73.92,48,0,1.95,21.4267,39.8261,SA,"Wed, 10 Feb 2021 01:20:10",22.59,42.09
Udachny,-24.7,83,41,6.91,66.4167,112.4,RU,"Wed, 10 Feb 2021 07:20:11",66.5,114.96
Buala,80.78,84,78,12.26,-8.145,159.5921,SB,"Wed, 10 Feb 2021 09:20:11",-2.1,163.7
Rameswaram,76.8,72,99,18.5,9.2833,79.3,IN,"Wed, 10 Feb 2021 03:50:11",8.8,79.8
Mbuji-Mayi,72.27,85,96,2.71,-6.15,23.6,CD,"Wed, 10 Feb 2021 00:20:11",-6.32,23.32
Khani,48.2,87,0,9.22,41.9563,42.9566,RU,"Wed, 10 Feb 2021 02:20:11",59.93,119.85
Alice Springs,82.4,69,70,5.75,-23.7,133.8833,AU,"Wed, 10 Feb 2021 07:50:12",-21.47,131.95
San Miguel de Cozumel,81.0,78,90,10.36,20.5083,-86.9458,MX,"Tue, 09 Feb 2021 17:20:12",19.96,-85.09
Pingliang,34.83,84,0,2.66,35.5392,106.6861,CN,"Wed, 10 Feb 2021 06:20:12",35.79,106.62
Jizan,75.2,83,0,3.44,17.3333,42.6667,SA,"Wed, 10 Feb 2021 01:18:01",16.32,41.61
Coacoyul,90.0,27,53,1.99,17.8058,-99.11,MX,"Tue, 09 Feb 2021 16:20:12",17.68,-101.44
Kalmunai,73.17,79,68,8.19,7.4167,81.8167,LK,"Wed, 10 Feb 2021 03:50:13",6.43,88.47
Yola,75.78,17,28,0.81,9.2,12.4833,NG,"Tue, 09 Feb 2021 23:20:13",9.12,12.51
Along,49.69,62,0,1.57,28.1667,94.7667,IN,"Wed, 10 Feb 2021 03:50:13",33.86,95.53
Ayní,36.52,71,78,7.05,39.3941,68.5377,TJ,"Wed, 10 Feb 2021 03:20:13",39.32,68.61
Bandarbeyla,74.68,71,98,20.49,9.4942,50.8122,SO,"Wed, 10 Feb 2021 01:20:13",8.05,55.99
Okha,10.54,96,90,17.09,53.5739,142.9478,RU,"Wed, 10 Feb 2021 09:20:14",55.57,146.31
Balaipungut,78.8,94,75,1.34,1.05,101.2833,ID,"Wed, 10 Feb 2021 05:20:14",0.47,101.49
Kostanay,-14.8,70,0,8.95,53.1667,63.5833,KZ,"Wed, 10 Feb 2021 04:20:14",53.12,64.27
Paamiut,31.06,86,99,10.8,61.994,-49.6678,GL,"Tue, 09 Feb 2021 19:20:14",63.66,-48.86
Mossendjo,69.49,99,100,1.23,-2.9506,12.7261,CG,"Tue, 09 Feb 2021 23:20:15",-2.76,13.56
Vilhena,73.4,100,20,6.91,-12.7406,-60.1458,BR,"Tue, 09 Feb 2021 18:20:15",-13.49,-60.29
Saint Paul Harbor,33.8,80,90,0.47,57.79,-152.4072,US,"Tue, 09 Feb 2021 13:20:15",58.31,-156.84
Pierre,10.4,44,1,11.5,44.3683,-100.351,US,"Tue, 09 Feb 2021 16:20:15",43.28,-101.53
Chimoré,74.86,93,100,2.77,-16.9833,-65.1333,BO,"Tue, 09 Feb 2021 18:20:16",-16.31,-64.31
Pontes e Lacerda,82.15,57,27,2.42,-15.2261,-59.3353,BR,"Tue, 09 Feb 2021 18:16:34",-15.36,-58.69
Mossamedes,72.61,75,97,5.48,-15.1961,12.1522,AO,"Tue, 09 Feb 2021 23:20:16",-17.97,7.5
Maputo,80.6,78,20,6.91,-25.9653,32.5892,MZ,"Wed, 10 Feb 2021 00:20:16",-26.17,33.49
Abu Dhabi,69.8,88,20,3.44,24.4667,54.3667,AE,"Wed, 10 Feb 2021 02:20:16",24.66,54.11
Ust'-Ishim,-22.27,87,29,4.03,57.6935,71.1665,RU,"Wed, 10 Feb 2021 04:20:17",58.85,70.64
Gonzales,78.01,60,1,6.91,30.2385,-90.9201,US,"Tue, 09 Feb 2021 16:17:26",36.65,-121.43
Norwich,32.0,74,82,6.91,52.6278,1.2983,GB,"Tue, 09 Feb 2021 22:19:47",53.06,1.48
Sur,70.38,71,100,11.48,22.5667,59.5289,OM,"Wed, 10 Feb 2021 02:20:17",19.78,62.84
Chifeng,17.22,89,8,7.05,42.2683,118.9636,CN,"Wed, 10 Feb 2021 06:20:17",44.1,119.06
Bushehr,64.4,88,21,6.91,28.9684,50.8385,IR,"Wed, 10 Feb 2021 01:50:17",29.39,50.61
Puttūr,71.6,83,0,3.44,12.7667,75.2167,IN,"Wed, 10 Feb 2021 03:50:18",13.51,79.55
Bariloche,80.6,24,0,2.3,-41.1456,-71.3082,AR,"Tue, 09 Feb 2021 19:20:18",-41.02,-70.61
Sambava,76.64,89,100,6.13,-14.2667,50.1667,MG,"Wed, 10 Feb 2021 01:20:18",-12.86,53.27
Rincon,62.6,88,90,4.61,32.296,-81.2354,AN,"Tue, 09 Feb 2021 17:20:18",13.28,-67.58
Sorong,81.52,79,100,5.64,-0.8833,131.25,ID,"Wed, 10 Feb 2021 07:20:18",0.85,130.02
Matagami,8.6,78,75,2.3,49.7502,-77.6328,CA,"Tue, 09 Feb 2021 17:20:19",50.36,-79.07
Ganzhou,49.93,86,100,2.98,28.8184,115.4327,CN,"Wed, 10 Feb 2021 06:20:19",25.75,114.7
Flinders,64.99,93,100,3.0,-34.5833,150.8552,AU,"Wed, 10 Feb 2021 09:20:19",-28.8,134.29
Iranshahr,59.0,25,0,6.91,27.2025,60.6848,IR,"Wed, 10 Feb 2021 01:46:03",26.65,59.91
Escalerillas,78.8,19,20,8.05,22.1333,-101.0667,MX,"Tue, 09 Feb 2021 16:20:19",22.09,-101.09
Saurimo,66.06,95,100,5.06,-9.6608,20.3916,AO,"Tue, 09 Feb 2021 23:20:20",-9.08,19.49
Visakhapatnam,68.67,70,8,3.31,17.69,83.2093,IN,"Wed, 10 Feb 2021 03:50:20",17.17,84.08
Hasaki,33.8,55,20,4.61,35.7333,140.8333,JP,"Wed, 10 Feb 2021 07:20:12",30.87,151.71
San Cristobal,84.2,61,40,11.5,7.7669,-72.225,EC,"Tue, 09 Feb 2021 18:20:20",-2.67,-87.69
Novaya Bryan’,-4.0,84,20,4.47,51.7159,108.2691,RU,"Wed, 10 Feb 2021 06:20:20",51.59,107.93
Ballina,71.6,73,75,13.8,-28.8667,153.5667,AU,"Wed, 10 Feb 2021 09:19:30",-30.08,155.83
Codrington,62.44,74,0,8.95,-38.2667,141.9667,AG,"Wed, 10 Feb 2021 09:20:20",26.53,-51.9
Prince Rupert,24.8,68,90,2.3,54.3161,-130.3201,CA,"Tue, 09 Feb 2021 14:17:48",51.91,-131.4
Carutapera,80.4,76,92,7.18,-1.195,-46.02,BR,"Tue, 09 Feb 2021 19:20:21",0.74,-45.51
Huarmey,75.18,70,40,9.4,-10.0681,-78.1522,PE,"Tue, 09 Feb 2021 17:20:21",-14.99,-86.75
Usinsk,-23.4,87,96,2.62,65.9939,57.5281,RU,"Wed, 10 Feb 2021 01:20:21",69.15,57.81
Iraquara,71.15,80,63,5.14,-12.2486,-41.6194,BR,"Tue, 09 Feb 2021 19:20:21",-12.24,-41.46
Beloha,73.63,91,100,2.37,-25.1667,45.05,MG,"Wed, 10 Feb 2021 01:20:21",-25.68,44.41
Hwange,67.66,95,99,2.28,-18.3693,26.5019,ZW,"Wed, 10 Feb 2021 00:20:21",-18.71,27.15
Portland,46.99,61,20,4.61,45.5234,-122.6762,AU,"Tue, 09 Feb 2021 14:16:53",-45.6,139.94
Kutum,57.43,36,83,8.72,14.2,24.6667,SD,"Wed, 10 Feb 2021 00:20:22",14.47,24.18
Port Hardy,35.6,60,75,6.91,50.6996,-127.4199,CA,"Tue, 09 Feb 2021 14:20:22",46.16,-133.15
Richards Bay,75.61,90,89,3.22,-28.783,32.0377,ZA,"Wed, 10 Feb 2021 00:20:22",-30.95,34.6
Kaoma,68.61,91,100,4.94,-14.7833,24.8,ZM,"Wed, 10 Feb 2021 00:20:22",-16.02,25.17
Santa Helena,77.45,85,99,3.29,-2.2311,-45.3,CO,"Tue, 09 Feb 2021 19:20:23",6.5,-73.6
Sistranda,28.4,93,40,11.5,63.7256,8.834,NO,"Tue, 09 Feb 2021 23:20:23",71.92,4.35
Carauari,80.65,90,74,2.08,-4.8828,-66.8958,BR,"Tue, 09 Feb 2021 18:18:33",-6.15,-67.04
Guerrero Negro,65.89,56,31,12.88,27.9769,-114.0611,MX,"Tue, 09 Feb 2021 15:20:23",25.25,-118.01
Zhangjiakou Shi Xuanhua Qu,28.92,81,0,3.49,40.6103,115.0447,CN,"Wed, 10 Feb 2021 06:20:23",39.7,114.41
Khandyga,-22.67,85,47,0.81,62.6667,135.6,RU,"Wed, 10 Feb 2021 07:20:23",64.55,137.36
Griffith,18.0,62,75,5.53,41.5284,-87.4237,AU,"Tue, 09 Feb 2021 16:20:24",-34.16,145.82
Yanta,37.6,78,40,5.79,36.2411,115.6672,CN,"Wed, 10 Feb 2021 06:20:24",36.48,115.26
Souillac,77.0,83,40,4.61,-20.5167,57.5167,MU,"Wed, 10 Feb 2021 02:20:24",-35.81,64.53
Xiaoweizhai,45.88,90,100,1.79,26.1903,107.5125,CN,"Wed, 10 Feb 2021 06:20:24",25.64,106.9
Asău,36.0,100,98,2.3,46.4333,26.4,TV,"Wed, 10 Feb 2021 00:20:24",-12.18,178.25
Sharan,-11.15,85,31,5.84,54.8167,54.0,RU,"Wed, 10 Feb 2021 03:20:24",54.78,54.01
Taltal,69.85,65,31,6.51,-25.4,-70.4833,CL,"Tue, 09 Feb 2021 19:20:25",-26.03,-74.25
Dorado,78.8,69,75,9.22,18.4588,-66.2677,US,"Tue, 09 Feb 2021 18:20:25",20.49,-66.35
Ust-Kuyga,-20.34,82,100,7.14,70.0167,135.6,RU,"Wed, 10 Feb 2021 08:20:25",70.69,133.45
Kiama,64.99,93,100,3.0,-34.6833,150.8667,AU,"Wed, 10 Feb 2021 09:20:25",-36.42,153.93
Kati,80.6,19,8,5.75,12.7441,-8.0726,ML,"Tue, 09 Feb 2021 22:20:25",13.15,-8.25
Santa Rosalía,71.44,35,50,2.64,27.3167,-112.2833,MX,"Tue, 09 Feb 2021 15:20:25",18.11,-93.73
Heihe,-0.4,78,20,2.55,50.2441,127.4902,CN,"Wed, 10 Feb 2021 06:20:26",50.05,126.75
Talaya,-6.45,88,100,9.91,61.3833,152.75,RU,"Wed, 10 Feb 2021 09:20:26",60.07,154.52
Nieuwpoort,23.0,86,38,9.22,51.1244,2.7735,AN,"Tue, 09 Feb 2021 23:20:26",11.93,-68.74
Mosquera,64.4,68,40,9.22,4.7059,-74.2302,CO,"Tue, 09 Feb 2021 17:20:26",2.58,-78.69
Vyazovaya,-16.47,86,86,5.61,54.905,58.3561,RU,"Wed, 10 Feb 2021 03:20:26",54.95,58.39
Poplar Bluff,28.99,80,90,8.05,36.757,-90.3929,US,"Tue, 09 Feb 2021 16:20:26",36.99,-90.02
Kargat,-7.89,89,100,12.21,55.1956,80.2811,RU,"Wed, 10 Feb 2021 05:20:27",55.28,80.28
Ayan,4.05,85,69,10.85,56.45,138.1667,RU,"Wed, 10 Feb 2021 08:20:27",57.44,140.0
Rafrāf,55.4,87,20,2.3,37.1904,10.1837,TN,"Tue, 09 Feb 2021 23:20:27",37.7,10.53
Cockburn Town,77.54,80,28,19.73,21.4612,-71.1419,TC,"Tue, 09 Feb 2021 17:20:27",24.29,-66.28
Idritsa,11.25,95,100,7.2,56.3316,28.8988,RU,"Wed, 10 Feb 2021 01:20:27",56.03,29.06
Ryazan,7.65,95,100,9.08,54.6197,39.74,RU,"Wed, 10 Feb 2021 01:20:27",54.7,39.74
Banda Aceh,78.48,82,10,8.05,5.5577,95.3222,ID,"Wed, 10 Feb 2021 05:20:28",1.16,88.29
Pudozh,-9.27,91,48,1.52,61.8099,36.5345,RU,"Wed, 10 Feb 2021 01:20:28",62.47,37.1
Zyryanka,-20.11,85,0,3.29,65.75,150.85,RU,"Wed, 10 Feb 2021 09:20:28",66.55,151.3
Santa Cruz Cabrália,77.0,78,40,6.91,-16.2781,-39.0247,BR,"Tue, 09 Feb 2021 19:19:44",-16.29,-38.37
Rosetta,62.6,94,40,6.91,31.4044,30.4164,EG,"Wed, 10 Feb 2021 00:20:29",32.72,30.79
Sarh,69.8,46,0,3.76,9.1429,18.3923,TD,"Tue, 09 Feb 2021 23:20:29",8.85,18.63
Íos,62.01,82,7,14.97,36.7333,25.2833,GR,"Wed, 10 Feb 2021 00:20:29",36.8,25.22
Puerto Ayacucho,90.79,47,92,9.19,5.6639,-67.6236,VE,"Tue, 09 Feb 2021 18:20:29",4.9,-65.88
Umm Kaddadah,67.53,26,88,12.08,13.6017,26.6876,SD,"Wed, 10 Feb 2021 00:20:29",14.39,27.32
Sabang,81.68,78,5,10.54,5.8933,95.3214,PH,"Wed, 10 Feb 2021 05:20:30",14.79,123.16
Arica,71.6,68,0,9.22,-18.475,-70.3042,CL,"Tue, 09 Feb 2021 19:17:07",-18.53,-71.16
Sola,82.4,83,75,3.31,-13.8833,167.55,VU,"Wed, 10 Feb 2021 09:20:30",-11.03,171.63
Mangan,56.23,32,5,5.19,27.5167,88.5333,IN,"Wed, 10 Feb 2021 03:50:30",28.47,87.93
Namwala,68.5,97,100,7.78,-15.7504,26.4384,ZM,"Wed, 10 Feb 2021 00:20:30",-16.41,25.48
Bandar-e Anzali,55.22,69,38,6.49,37.4727,49.4622,IR,"Wed, 10 Feb 2021 01:45:41",37.36,49.48
Maceió,78.8,78,0,4.61,-9.6658,-35.7353,BR,"Tue, 09 Feb 2021 19:16:52",-17.2,-26.71
Toronto,27.0,50,87,7.02,43.7001,-79.4163,CA,"Tue, 09 Feb 2021 17:15:55",43.64,-79.58
Kletnya,5.45,95,93,5.46,53.3897,33.2171,RU,"Wed, 10 Feb 2021 01:20:31",53.19,33.35
Cururupu,78.75,80,100,3.29,-1.8283,-44.8683,BR,"Tue, 09 Feb 2021 19:20:31",0.82,-43.32
Sioux Lookout,-13.0,64,90,9.22,50.1001,-91.917,CA,"Tue, 09 Feb 2021 16:20:31",51.32,-92.32
Marawi,73.99,94,67,5.99,7.9986,124.2928,SD,"Wed, 10 Feb 2021 06:20:31",19.39,27.92
Maragogi,78.84,75,46,6.67,-9.0122,-35.2225,BR,"Tue, 09 Feb 2021 19:17:58",-15.85,-25.98
Deputatsky,-21.75,89,49,3.15,69.3,139.9,RU,"Wed, 10 Feb 2021 08:20:31",72.84,140.28
Wyndham,59.0,55,1,5.75,37.6985,-77.6125,NZ,"Tue, 09 Feb 2021 17:20:32",-46.24,169.23
Hamada,33.01,18,88,1.01,34.8833,132.0833,JP,"Wed, 10 Feb 2021 07:20:32",35.7,131.41
Formosa do Rio Preto,72.66,88,96,3.33,-11.0483,-45.1931,BR,"Tue, 09 Feb 2021 19:20:32",-11.07,-44.91
Roald,26.6,68,75,11.5,62.5833,6.1333,NO,"Tue, 09 Feb 2021 23:20:32",68.23,3.91
Shūshtar,62.17,60,100,1.34,32.0455,48.8567,IR,"Wed, 10 Feb 2021 01:50:33",31.72,48.65
Varna,55.4,71,20,9.46,43.2167,27.9167,RU,"Wed, 10 Feb 2021 00:20:04",52.93,61.2
Yerbogachën,12.11,93,100,11.41,61.2767,108.0108,RU,"Wed, 10 Feb 2021 06:20:33",59.67,108.87
Coudekerque-Branche,25.0,86,33,9.22,51.0229,2.3936,FR,"Tue, 09 Feb 2021 23:20:33",50.96,2.5
North Branch,6.8,43,1,8.05,45.5113,-92.9802,US,"Tue, 09 Feb 2021 16:20:33",46.13,-92.98
Grand Gaube,75.99,80,1,13.22,-20.0064,57.6608,MU,"Wed, 10 Feb 2021 02:20:33",-12.77,65.33
Arshan',33.01,100,57,22.37,46.2732,44.22,RU,"Wed, 10 Feb 2021 01:20:34",45.89,44.02
Baytown,70.0,84,33,1.01,29.7355,-94.9774,US,"Tue, 09 Feb 2021 16:16:19",29.74,-94.86
Kirakira,81.91,79,98,5.93,-10.4544,161.9205,SB,"Wed, 10 Feb 2021 09:20:34",-10.77,162.98
Mihara,32.0,69,40,1.14,34.4,133.0833,JP,"Wed, 10 Feb 2021 07:20:34",34.47,132.99
Lumphat,72.46,82,72,5.79,13.4878,106.9816,KH,"Wed, 10 Feb 2021 05:20:34",13.94,106.95
Loreto,75.38,17,0,8.5,22.2667,-101.9667,MX,"Tue, 09 Feb 2021 16:20:35",26.29,-110.73
Manavālakurichi,80.6,47,20,3.44,8.1333,77.3,IN,"Wed, 10 Feb 2021 03:50:35",7.72,76.92
Kibungo,69.8,78,40,1.41,-2.1597,30.5427,RW,"Wed, 10 Feb 2021 00:20:35",-1.98,30.78
Aykhal,-21.93,85,100,8.59,66.0,111.5,RU,"Wed, 10 Feb 2021 07:20:35",66.53,109.42
Karlstad,10.4,85,100,5.75,59.3793,13.5036,SE,"Tue, 09 Feb 2021 23:20:35",59.27,13.79
Richmond,59.0,67,20,3.29,37.5538,-77.4603,ZA,"Tue, 09 Feb 2021 17:16:47",-30.17,30.35
Sarkand,11.43,91,99,1.45,45.41,79.9186,KZ,"Wed, 10 Feb 2021 04:20:36",45.59,81.11
Tiznit Province,54.93,83,18,5.12,29.5833,-9.5,MA,"Tue, 09 Feb 2021 23:18:07",27.83,-10.15
Santa Cruz de la Sierra,69.8,88,90,14.97,-17.8,-63.1667,CR,"Tue, 09 Feb 2021 18:20:36",9.28,-89.21
Segezha,-1.97,91,0,5.12,63.7415,34.3222,RU,"Wed, 10 Feb 2021 01:20:36",63.89,33.47
Sande,28.99,80,20,6.91,53.5049,8.0142,NO,"Tue, 09 Feb 2021 23:20:36",61.37,5.66
Rawlins,36.0,51,90,24.16,41.7911,-107.2387,US,"Tue, 09 Feb 2021 15:20:36",41.54,-106.58
Dawson Creek,-20.2,57,1,11.5,55.7666,-120.2362,CA,"Tue, 09 Feb 2021 15:20:37",56.59,-120.03
Copiapó,68.0,60,0,14.97,-27.3667,-70.3333,CL,"Tue, 09 Feb 2021 19:20:37",-28.41,-68.85
Canavieiras,77.7,79,98,7.65,-15.675,-38.9472,BR,"Tue, 09 Feb 2021 19:20:37",-15.32,-37.58
Xingyi,36.43,95,11,2.37,24.1877,102.817,CN,"Wed, 10 Feb 2021 06:20:37",25.63,105.28
Gemeente Goirle,21.2,86,90,6.91,51.5167,5.05,NL,"Tue, 09 Feb 2021 23:20:37",51.51,5.03
Karaton,79.0,88,99,3.44,-6.3424,106.1045,KZ,"Wed, 10 Feb 2021 05:20:37",45.83,52.51
Viedma,75.0,47,49,1.01,-40.8135,-62.9967,AR,"Tue, 09 Feb 2021 19:20:32",-41.44,-62.76
Te Anau,47.52,88,99,3.09,-45.4167,167.7167,NZ,"Wed, 10 Feb 2021 11:20:38",-39.22,161.41
Show Low,53.6,17,1,23.02,34.2542,-110.0298,US,"Tue, 09 Feb 2021 15:20:38",34.98,-109.75
Egvekinot,-12.62,76,42,9.35,66.3167,-179.1667,RU,"Wed, 10 Feb 2021 10:20:38",66.5,-178.8
Raahe,-7.6,84,90,2.3,64.6833,24.4833,FI,"Wed, 10 Feb 2021 00:20:38",64.71,24.59
Mayumba,76.1,86,100,5.68,-3.432,10.6554,GA,"Tue, 09 Feb 2021 23:20:38",-3.99,10.81
Rizhao,35.49,83,46,3.71,35.4275,119.4553,CN,"Wed, 10 Feb 2021 06:20:38",35.35,119.53
Laguna,64.99,55,40,2.06,38.421,-121.4238,BR,"Tue, 09 Feb 2021 14:20:39",-46.82,-28.22
Ca Mau,73.11,91,89,1.9,9.1769,105.15,VN,"Wed, 10 Feb 2021 05:20:39",7.0,105.83
Hervey Bay,80.01,59,8,4.0,-25.2986,152.8535,AU,"Wed, 10 Feb 2021 08:20:39",-24.17,158.17
Zhaotong,35.04,88,0,2.59,27.3167,103.7167,CN,"Wed, 10 Feb 2021 06:20:39",27.46,103.9
Yumen,31.95,76,30,17.05,40.2833,97.2,CN,"Wed, 10 Feb 2021 06:20:26",41.17,96.45
Manadhoo,81.39,70,40,7.9,5.7667,73.3833,MV,"Wed, 10 Feb 2021 03:20:39",5.83,74.69
Golden,39.99,54,75,4.61,39.7555,-105.2211,CA,"Tue, 09 Feb 2021 15:20:39",50.91,-117.5
Tura,59.45,39,5,3.18,25.5198,90.2201,RU,"Wed, 10 Feb 2021 03:50:40",66.88,96.74
Takaka,63.0,75,0,7.0,-40.85,172.8,NZ,"Wed, 10 Feb 2021 11:20:40",-39.86,172.51
Stornoway,33.8,64,20,9.22,58.2093,-6.3865,GB,"Tue, 09 Feb 2021 22:20:40",58.82,-6.39
Newport,32.0,77,70,23.8,51.5877,-2.9984,US,"Tue, 09 Feb 2021 22:20:41",44.52,-124.93
Fort Nelson,-11.2,49,40,8.05,58.8053,-122.7002,CA,"Tue, 09 Feb 2021 15:20:41",58.86,-125.09
Jalu,60.04,31,100,7.76,29.0331,21.5482,LY,"Wed, 10 Feb 2021 00:20:41",26.14,21.77
Sosnogorsk,-10.41,90,100,4.68,63.6023,53.8817,RU,"Wed, 10 Feb 2021 01:20:41",64.2,54.33
Cabo Rojo,80.01,74,87,1.99,18.0866,-67.1457,US,"Tue, 09 Feb 2021 18:20:41",17.11,-67.85
Dunda,65.32,93,100,2.3,-8.1167,34.25,TZ,"Wed, 10 Feb 2021 01:20:41",-8.11,34.51
Moussoro,71.11,19,0,11.9,13.6408,16.4901,TD,"Tue, 09 Feb 2021 23:20:42",15.76,17.78
Pitimbu,80.6,78,20,9.22,-7.4706,-34.8086,BR,"Tue, 09 Feb 2021 19:20:42",-7.19,-29.14
Honāvar,70.18,39,15,4.97,14.2833,74.45,IN,"Wed, 10 Feb 2021 03:50:42",13.61,73.01
Camaná,74.48,73,64,6.93,-16.6228,-72.7111,PE,"Tue, 09 Feb 2021 17:20:42",-20.86,-76.24
Kolondiéba,79.07,17,0,4.65,11.0882,-6.8926,ML,"Tue, 09 Feb 2021 22:20:43",10.93,-6.91
Buluang,71.08,92,100,5.03,13.3068,123.3425,PH,"Wed, 10 Feb 2021 06:20:43",13.43,116.32
Ixtapa,75.2,60,1,11.5,20.7,-105.2,MX,"Tue, 09 Feb 2021 16:20:43",9.68,-105.08
