City Name,Temperature (F),Humidity %,Cloud Coverage %,Wind Speed (mph),City Latitude,City Longitude,City Country,City Local Date_Time,Random_Latitude,Random_Longitude
Rikitea,78.19,70,100,9.95,-23.1203,-134.9692,pf,"Sat, 06 Feb 2021 13:22:53",-45.98,-138.65
Puerto Ayora,86.0,62,0,16.11,-0.7393,-90.3518,ec,"Sat, 06 Feb 2021 16:25:52",-6.42,-102.73
Saskylakh,-36.92,80,92,6.69,71.9167,114.0833,ru,"Sun, 07 Feb 2021 07:27:23",72.34,114.57
Aksarka,-34.64,82,97,19.75,66.5606,67.7975,ru,"Sun, 07 Feb 2021 03:27:23",64.74,68.78
Barrow,-5.8,77,75,10.36,71.2906,-156.7887,us,"Sat, 06 Feb 2021 13:27:23",69.86,-161.43
Wuwei,26.35,71,27,2.86,37.9281,102.6414,cn,"Sun, 07 Feb 2021 06:27:23",37.73,103.61
Albany,35.6,40,20,13.8,42.6001,-73.9662,au,"Sat, 06 Feb 2021 17:27:24",-89.31,111.88
Touros,78.8,78,40,4.61,-5.1989,-35.4608,br,"Sat, 06 Feb 2021 19:27:24",-2.73,-30.08
Port Elizabeth,68.0,83,40,9.22,-33.918,25.5701,za,"Sun, 07 Feb 2021 00:23:57",-56.51,28.03
Mataura,69.58,59,2,1.99,-46.1927,168.8643,pf,"Sun, 07 Feb 2021 11:25:18",-79.98,-165.38
Bluff,59.63,69,2,1.77,-46.6,168.3333,nz,"Sun, 07 Feb 2021 11:27:24",-81.67,174.82
Srandakan,75.7,86,76,5.21,-7.9386,110.2506,id,"Sun, 07 Feb 2021 05:27:25",-17.36,106.97
Ponta do Sol,54.0,67,15,1.01,32.6667,-17.1,cv,"Sat, 06 Feb 2021 22:27:25",23.27,-28.7
Broome,28.4,31,1,11.5,42.2506,-75.833,au,"Sat, 06 Feb 2021 17:27:25",-18.31,121.2
Makakilo City,77.0,50,40,12.66,21.3469,-158.0858,us,"Sat, 06 Feb 2021 12:27:25",4.95,-165.92
Hamilton,37.4,32,40,1.83,39.1834,-84.5333,us,"Sat, 06 Feb 2021 17:26:29",46.37,-114.47
Oranjemund,65.32,91,21,13.6,-28.55,16.4333,na,"Sun, 07 Feb 2021 00:24:01",-29.09,14.24
East London,74.5,88,0,1.66,-33.0153,27.9116,za,"Sun, 07 Feb 2021 00:26:25",-50.39,38.03
Khatanga,-35.32,78,0,7.67,71.9667,102.5,ru,"Sun, 07 Feb 2021 05:27:26",74.1,96.63
Upernavik,20.08,78,97,3.89,72.7868,-56.1549,gl,"Sat, 06 Feb 2021 19:24:14",76.36,-55.59
Bida,83.98,15,66,5.28,9.0833,6.0167,ng,"Sat, 06 Feb 2021 23:18:04",9.4,6.22
Chokurdakh,-22.2,87,42,4.99,70.6333,147.9167,ru,"Sun, 07 Feb 2021 09:25:08",73.63,151.14
Kapaa,73.99,49,20,6.91,22.0752,-159.319,us,"Sat, 06 Feb 2021 12:26:30",38.89,-157.38
Kumul,30.81,78,9,6.76,42.8,93.45,cn,"Sun, 07 Feb 2021 06:26:04",42.47,91.52
Saint-Philippe,78.8,83,40,4.61,-21.3585,55.7679,re,"Sun, 07 Feb 2021 02:27:26",-33.31,60.59
Yellowknife,-34.01,61,1,4.61,62.456,-114.3525,ca,"Sat, 06 Feb 2021 15:25:38",76.6,-109.27
Port Macquarie,73.0,94,40,4.61,-31.4333,152.9167,au,"Sun, 07 Feb 2021 09:14:46",-36.36,161.4
Seydi,48.92,64,100,4.92,39.4816,62.9137,tm,"Sun, 07 Feb 2021 03:18:05",38.86,62.82
Wasilla,19.99,85,90,1.72,61.5814,-149.4394,us,"Sat, 06 Feb 2021 13:18:05",63.78,-151.51
Kodumudi,68.99,75,0,1.61,11.0775,77.8836,in,"Sun, 07 Feb 2021 03:48:05",11.09,77.94
Machalí,64.4,82,90,8.61,-34.1833,-70.6667,cl,"Sat, 06 Feb 2021 19:18:05",-34.18,-69.52
Ushuaia,53.6,71,40,19.57,-54.8,-68.3,ar,"Sat, 06 Feb 2021 19:22:45",-85.97,-49.25
Leningradskiy,-12.08,75,32,6.08,69.3833,178.4167,ru,"Sun, 07 Feb 2021 10:24:48",86.82,179.35
Hithadhoo,81.45,76,44,11.63,-0.6,73.0833,mv,"Sun, 07 Feb 2021 03:27:28",-13.93,85.06
Thompson,-25.6,62,75,14.97,55.7435,-97.8558,ca,"Sat, 06 Feb 2021 16:26:25",77.93,-95.3
Ilulissat,24.8,39,11,21.85,69.2167,-51.1,gl,"Sat, 06 Feb 2021 19:27:29",79.96,-45.34
Sitka,35.6,69,40,14.97,57.0531,-135.33,us,"Sat, 06 Feb 2021 13:27:29",49.62,-143.22
Inta,-28.3,84,45,14.38,66.0317,60.1659,ru,"Sun, 07 Feb 2021 01:27:29",67.64,59.03
Biloela,80.53,60,3,8.39,-24.4167,150.5,au,"Sun, 07 Feb 2021 08:18:07",-24.52,150.77
Svetlaya,1.58,86,70,9.37,46.5389,138.3297,ru,"Sun, 07 Feb 2021 08:27:29",45.46,137.8
Samdrup Jongkhar District,54.19,53,80,3.69,26.9167,91.6167,bt,"Sun, 07 Feb 2021 04:18:07",26.91,91.59
Pevek,-4.92,87,73,5.7,69.7008,170.3133,ru,"Sun, 07 Feb 2021 10:24:05",86.44,173.96
Davila,69.8,94,40,1.14,18.4726,120.5763,ph,"Sun, 07 Feb 2021 06:18:08",18.5,120.25
Rafaela,90.0,26,0,1.01,-31.2503,-61.4867,ar,"Sat, 06 Feb 2021 19:18:08",-31.94,-61.53
Cape Town,72.0,83,20,9.22,-33.9258,18.4232,za,"Sun, 07 Feb 2021 00:27:30",-59.99,-12.7
Vaini,82.4,89,75,6.91,-21.2,-175.2,to,"Sun, 07 Feb 2021 11:24:21",-62.73,-169.07
Provideniya,0.45,89,50,5.68,64.3833,-173.3,ru,"Sun, 07 Feb 2021 10:27:30",58.43,-170.46
Bonthe,79.56,78,82,7.29,7.5264,-12.505,sl,"Sat, 06 Feb 2021 22:18:08",2.14,-16.45
Atuona,80.35,77,100,20.36,-9.8,-139.0333,pf,"Sat, 06 Feb 2021 12:57:30",5.12,-134.45
Talcahuano,60.8,82,90,5.75,-36.7167,-73.1167,cl,"Sat, 06 Feb 2021 19:18:09",-35.13,-75.39
Lata,52.0,80,35,1.01,40.1629,-8.3327,sb,"Sat, 06 Feb 2021 22:27:31",-6.38,165.62
Lüderitz,71.04,55,0,22.62,-26.6481,15.1594,na,"Sun, 07 Feb 2021 00:27:31",-34.91,-1.15
Taganak,78.8,89,20,4.61,6.0833,118.3,ph,"Sun, 07 Feb 2021 06:18:09",6.49,117.99
Airai,60.49,100,90,2.33,-8.9266,125.4092,pw,"Sun, 07 Feb 2021 07:27:31",15.51,145.38
Bredasdorp,69.8,73,75,6.91,-34.5322,20.0403,za,"Sun, 07 Feb 2021 00:23:55",-82.26,24.47
Piranshahr,36.34,82,100,1.23,36.701,45.1413,ir,"Sun, 07 Feb 2021 01:48:09",36.66,45.01
Miquelon,37.4,100,75,18.41,47.0975,-56.3814,pm,"Sat, 06 Feb 2021 19:18:10",47.92,-56.77
Panguna,76.03,81,38,2.35,-6.3164,155.4848,pg,"Sun, 07 Feb 2021 09:18:10",-6.95,154.3
Carnarvon,78.8,100,40,12.66,-24.8667,113.6333,au,"Sun, 07 Feb 2021 06:27:32",-21.49,102.88
Busselton,57.99,97,100,3.0,-33.65,115.3333,au,"Sun, 07 Feb 2021 06:27:32",-84.15,80.38
Poum,79.88,68,0,3.71,-20.2333,164.0167,nc,"Sun, 07 Feb 2021 09:27:32",-16.87,163.34
Thap Than,72.0,85,13,1.12,15.4606,99.8917,th,"Sun, 07 Feb 2021 05:18:10",15.26,99.37
Rocha,70.05,79,0,10.92,-34.4833,-54.3333,uy,"Sat, 06 Feb 2021 19:13:26",-48.82,-40.98
Kousséri,73.4,18,17,9.22,12.0769,15.0306,cm,"Sat, 06 Feb 2021 23:18:11",11.69,15.21
Nelson Bay,75.99,83,8,12.66,-32.7167,152.15,au,"Sun, 07 Feb 2021 09:27:12",-33.8,153.49
Mar del Plata,66.99,68,20,12.66,-38.0023,-57.5575,ar,"Sat, 06 Feb 2021 19:22:44",-57.56,-45.16
Saint Anthony,-0.4,50,40,12.66,45.0205,-93.218,ca,"Sat, 06 Feb 2021 16:27:33",51.86,-52.79
Castelbuono,66.0,38,100,11.74,37.932,14.0886,it,"Sat, 06 Feb 2021 23:18:12",37.81,14.03
Palafrugell,51.01,93,40,2.3,41.9174,3.1631,es,"Sat, 06 Feb 2021 23:18:12",41.83,4.38
Maxixe,76.23,88,98,6.73,-23.8597,35.3472,mz,"Sun, 07 Feb 2021 00:18:12",-24.19,34.78
Nanortalik,21.72,80,10,9.48,60.1432,-45.2371,gl,"Sat, 06 Feb 2021 19:27:34",50.65,-40.39
Nikolskoye,8.01,85,40,11.18,59.7035,30.7861,ru,"Sun, 07 Feb 2021 01:27:34",34.26,178.89
Butaritari,81.25,80,100,21.36,3.0707,172.7902,ki,"Sun, 07 Feb 2021 10:22:58",22.67,170.17
Comodoro Rivadavia,55.4,76,75,17.27,-45.8667,-67.5,ar,"Sat, 06 Feb 2021 19:27:34",-46.42,-68.79
Ahipara,69.44,62,93,5.86,-35.1667,173.1667,nz,"Sun, 07 Feb 2021 11:26:33",-35.43,172.72
Jamestown,21.2,45,1,10.36,42.097,-79.2353,sh,"Sat, 06 Feb 2021 17:25:48",-20.22,-4.36
Katsuura,42.8,65,0,5.75,35.1333,140.3,jp,"Sun, 07 Feb 2021 07:27:35",18.86,151.53
Hong Kong,64.99,64,0,5.03,22.2855,114.1577,sc,"Sun, 07 Feb 2021 06:22:53",-6.35,61.24
Abhā,50.0,81,0,4.12,18.2164,42.5053,sa,"Sun, 07 Feb 2021 01:18:13",21.03,43.0
Hermanus,66.99,90,84,3.65,-34.4187,19.2345,za,"Sun, 07 Feb 2021 00:22:53",-52.68,10.85
Nhulunbuy,82.4,78,100,10.36,-12.2333,136.7667,au,"Sun, 07 Feb 2021 07:55:18",-12.94,140.33
Hilo,80.6,44,1,6.91,19.7297,-155.09,us,"Sat, 06 Feb 2021 12:27:35",15.09,-154.36
North Bend,51.01,76,75,4.61,43.4065,-124.2243,us,"Sat, 06 Feb 2021 14:23:22",43.23,-132.04
Toccoa,46.4,39,90,4.61,34.5773,-83.3324,us,"Sat, 06 Feb 2021 17:18:14",34.59,-83.45
Mizdah,64.36,27,99,9.84,31.4451,12.9801,ly,"Sun, 07 Feb 2021 00:18:14",29.56,13.69
Lerwick,33.8,55,90,17.27,60.1545,-1.1494,gb,"Sat, 06 Feb 2021 22:18:14",60.0,1.65
Punta Arenas,57.2,51,75,24.16,-53.15,-70.9167,cl,"Sat, 06 Feb 2021 19:24:12",-85.24,-119.92
Belle Fourche,10.0,78,20,8.05,44.6714,-103.8522,us,"Sat, 06 Feb 2021 15:18:14",45.5,-104.57
Bengkulu,76.41,73,100,5.23,-3.8004,102.2655,id,"Sun, 07 Feb 2021 05:26:53",-11.48,95.91
Lebu,61.54,84,51,6.15,-37.6167,-73.65,cl,"Sat, 06 Feb 2021 19:22:56",-36.91,-104.27
Iqaluit,26.6,80,90,21.85,63.7506,-68.5145,ca,"Sat, 06 Feb 2021 17:27:37",57.75,-70.31
Carhuamayo,48.04,75,52,8.5,-10.9167,-76.0333,pe,"Sat, 06 Feb 2021 17:18:15",-10.9,-75.84
Rovaniemi,14.0,85,0,9.22,66.5,25.7167,fi,"Sun, 07 Feb 2021 00:14:26",66.3,26.08
Kyshtovka,30.63,98,100,17.07,56.555,76.6271,ru,"Sun, 07 Feb 2021 05:27:37",57.4,76.42
Chennai,68.0,94,20,5.3,13.0878,80.2785,in,"Sun, 07 Feb 2021 03:47:38",12.65,81.19
Cabra,48.99,83,73,6.55,37.4725,-4.4421,ph,"Sat, 06 Feb 2021 23:27:38",13.98,118.75
Isangel,84.2,74,20,5.75,-19.55,169.2667,vu,"Sun, 07 Feb 2021 09:27:38",-19.49,175.8
Vodnyy,-17.36,86,100,13.15,63.5046,53.4095,ru,"Sun, 07 Feb 2021 01:18:16",63.65,53.19
Novo Aripuanã,76.42,97,99,2.55,-5.1206,-60.3797,br,"Sat, 06 Feb 2021 18:18:16",-5.11,-59.93
Sinnamary,77.7,86,100,14.92,5.3833,-52.95,gf,"Sat, 06 Feb 2021 19:26:12",10.7,-49.45
Port Alfred,68.0,91,58,5.01,-33.5906,26.891,za,"Sun, 07 Feb 2021 00:25:12",-60.35,42.09
Saint-François,46.99,100,100,5.75,46.4154,3.9054,gp,"Sat, 06 Feb 2021 23:27:38",17.23,-57.58
Ati,68.36,21,32,10.02,13.2154,18.3353,td,"Sat, 06 Feb 2021 23:18:16",13.78,18.44
Mbekenyera,72.43,96,100,3.38,-10.0,38.9833,tz,"Sun, 07 Feb 2021 01:18:17",-9.45,39.1
Kaitangata,63.81,67,1,4.83,-46.2817,169.8464,nz,"Sun, 07 Feb 2021 11:27:39",-56.93,176.66
Cidreira,72.66,74,14,5.91,-30.1811,-50.2056,br,"Sat, 06 Feb 2021 19:25:26",-59.84,-19.38
Alofi,84.2,79,100,11.5,-19.0595,-169.9187,nu,"Sat, 06 Feb 2021 11:27:39",-17.86,-166.65
Eyl,74.98,80,13,11.77,7.9803,49.8164,so,"Sun, 07 Feb 2021 01:27:39",5.29,55.39
Tiksi,-25.96,85,100,5.19,71.6872,128.8694,ru,"Sun, 07 Feb 2021 07:27:39",71.63,127.25
Hobart,64.0,59,75,12.66,-42.8794,147.3294,au,"Sun, 07 Feb 2021 09:27:21",-64.74,153.75
Venado Tuerto,84.99,67,0,1.99,-33.7456,-61.9688,ar,"Sat, 06 Feb 2021 19:18:18",-33.24,-62.32
Ancud,73.4,46,0,8.05,-41.8697,-73.8203,cl,"Sat, 06 Feb 2021 19:26:58",-41.0,-87.25
Biltine,63.55,25,8,13.58,14.5333,20.9167,td,"Sat, 06 Feb 2021 23:18:18",14.78,20.29
Tuatapere,67.35,56,0,1.86,-46.1333,167.6833,nz,"Sun, 07 Feb 2021 11:23:59",-54.98,157.08
Pochutla,81.0,74,75,11.5,15.7432,-96.4661,mx,"Sat, 06 Feb 2021 16:18:18",6.17,-97.23
Pisco,75.2,73,75,5.75,-13.7,-76.2167,pe,"Sat, 06 Feb 2021 17:25:20",-22.26,-87.15
Cayenne,77.0,100,75,1.14,4.9333,-52.3333,gf,"Sat, 06 Feb 2021 19:27:41",13.56,-45.37
Saldanha,66.2,82,2,8.05,-33.0117,17.9442,za,"Sun, 07 Feb 2021 00:18:19",-31.63,15.9
George Town,80.01,83,20,6.26,5.4112,100.3354,sh,"Sun, 07 Feb 2021 06:27:41",-8.97,-14.47
Beringovskiy,-7.47,89,48,10.51,63.05,179.3167,ru,"Sun, 07 Feb 2021 10:27:41",50.95,179.96
Pasinler,14.0,92,0,3.44,39.9803,41.6764,tr,"Sun, 07 Feb 2021 01:18:19",39.66,41.95
Nome,17.6,86,90,6.91,64.5011,-165.4064,us,"Sat, 06 Feb 2021 13:17:34",69.18,-164.01
Bethel,42.8,28,1,11.5,41.3712,-73.414,us,"Sat, 06 Feb 2021 17:22:57",46.53,-167.61
Castro,66.02,63,0,3.6,-24.7911,-50.0119,cl,"Sat, 06 Feb 2021 19:26:23",-44.69,-98.0
Matara,74.28,88,99,8.14,5.9485,80.5353,lk,"Sun, 07 Feb 2021 03:57:42",0.73,80.7
Yarmouth,39.99,56,1,17.27,41.7057,-70.2286,ca,"Sat, 06 Feb 2021 17:27:42",41.42,-67.17
Chui,73.65,69,0,8.19,-33.6971,-53.4616,uy,"Sat, 06 Feb 2021 19:27:42",-60.76,-26.96
Tasiilaq,35.6,55,75,29.93,65.6145,-37.6368,gl,"Sat, 06 Feb 2021 19:27:42",53.62,-32.07
Mwinilunga,64.54,97,100,5.61,-11.7358,24.4293,zm,"Sun, 07 Feb 2021 00:18:20",-11.89,25.11
Tessalit,73.54,18,69,13.2,20.1986,1.0114,ml,"Sat, 06 Feb 2021 22:18:21",20.41,0.37
Tautira,84.2,58,20,12.66,-17.7333,-149.15,pf,"Sat, 06 Feb 2021 12:18:21",-18.09,-148.42
Wilmington,48.2,57,90,10.36,34.2257,-77.9447,us,"Sat, 06 Feb 2021 17:23:53",30.81,-75.5
Dourbali,71.31,19,62,11.23,11.8091,15.8632,td,"Sat, 06 Feb 2021 23:18:21",12.17,15.76
Kavaratti,81.16,60,3,8.77,10.5669,72.642,in,"Sun, 07 Feb 2021 03:55:01",8.16,63.54
Esperance,59.0,94,90,11.5,-33.8667,121.9,au,"Sun, 07 Feb 2021 06:27:43",-35.88,124.59
Constitución,63.37,74,21,5.17,-35.3333,-72.4167,cl,"Sat, 06 Feb 2021 19:25:34",-32.24,-77.91
Dikson,-28.73,86,89,10.25,73.5069,80.5464,ru,"Sun, 07 Feb 2021 05:27:44",72.21,77.95
Rādhanpur,59.77,32,0,8.93,23.8333,71.6,in,"Sun, 07 Feb 2021 03:48:22",24.02,71.64
Qaanaaq,10.15,86,98,7.34,77.484,-69.3632,gl,"Sat, 06 Feb 2021 18:23:53",78.77,-72.0
Tuktoyaktuk,-16.6,83,90,24.16,69.4541,-133.0374,ca,"Sat, 06 Feb 2021 15:26:56",81.76,-120.76
Vestmannaeyjar,39.2,73,36,30.13,63.4427,-20.2734,is,"Sat, 06 Feb 2021 22:27:44",55.83,-22.07
Linxia Chengguanzhen,29.64,71,100,0.69,35.6003,103.2064,cn,"Sun, 07 Feb 2021 06:18:22",35.28,103.71
Mastic Beach,41.0,47,0,3.0,40.7668,-72.8521,us,"Sat, 06 Feb 2021 17:18:22",40.16,-72.03
Hue,68.0,94,40,3.44,16.4667,107.6,vn,"Sun, 07 Feb 2021 05:18:22",16.64,107.13
New Norfolk,64.0,63,65,1.99,-42.7826,147.0587,au,"Sun, 07 Feb 2021 09:23:56",-48.61,139.79
Rapid Valley,3.2,72,90,5.75,44.0625,-103.1463,us,"Sat, 06 Feb 2021 15:18:23",43.76,-102.61
Dogbo,80.85,79,47,7.63,6.8167,1.7833,bj,"Sat, 06 Feb 2021 23:18:23",6.82,1.97
Villazón,60.78,55,75,15.93,-22.0866,-65.5942,bo,"Sat, 06 Feb 2021 18:18:23",-22.3,-66.72
Muisne,82.4,83,75,6.91,0.6,-80.0333,ec,"Sat, 06 Feb 2021 17:18:23",3.31,-82.74
Yangambi,71.74,63,32,1.88,0.8102,24.4336,cd,"Sun, 07 Feb 2021 00:18:23",-0.47,23.9
Batu,77.0,88,40,9.22,-7.87,112.5283,id,"Sun, 07 Feb 2021 05:18:05",-7.8,112.55
Whitianga,67.68,59,99,8.59,-36.8333,175.7,nz,"Sun, 07 Feb 2021 11:18:24",-34.96,177.41
Shimoda,48.87,57,0,12.08,34.6667,138.95,jp,"Sun, 07 Feb 2021 07:26:33",26.96,141.65
Bismarck,1.4,42,1,11.5,46.8083,-100.7837,us,"Sat, 06 Feb 2021 16:24:01",47.61,-100.18
Henties Bay,64.99,89,23,1.99,-22.116,14.2845,na,"Sun, 07 Feb 2021 00:26:55",-22.89,6.15
Avarua,84.2,74,60,12.66,-21.2078,-159.775,ck,"Sat, 06 Feb 2021 12:27:46",-54.57,-164.18
Longyearbyen,19.4,73,75,8.05,78.2186,15.6401,sj,"Sat, 06 Feb 2021 23:27:46",88.67,14.25
Don Luan,71.29,78,58,4.38,11.5333,106.9167,vn,"Sun, 07 Feb 2021 05:18:25",11.99,106.5
Berlevåg,26.64,93,100,25.37,70.8578,29.0864,no,"Sat, 06 Feb 2021 23:27:47",83.14,32.13
Bagdarin,-14.64,80,50,2.71,54.4333,113.6,ru,"Sun, 07 Feb 2021 06:18:25",54.93,114.61
Awjilah,60.78,38,0,8.88,29.1081,21.2869,ly,"Sun, 07 Feb 2021 00:27:47",24.75,19.75
Torbay,39.99,100,90,21.85,47.6666,-52.7314,ca,"Sat, 06 Feb 2021 18:57:47",35.3,-46.37
Evensk,13.5,88,96,18.14,61.95,159.2333,ru,"Sun, 07 Feb 2021 09:27:47",61.25,158.76
Lučani,46.4,57,0,4.61,43.8608,20.1381,rs,"Sat, 06 Feb 2021 23:18:26",44.0,20.1
Ust'-Koksa,16.34,89,13,2.24,50.2696,85.6108,ru,"Sun, 07 Feb 2021 05:18:26",49.54,85.58
Greece,25.0,58,40,23.02,43.2098,-77.6931,us,"Sat, 06 Feb 2021 17:18:26",43.36,-77.71
Tarancón,45.0,9,97,24.0,40.0085,-3.0073,es,"Sat, 06 Feb 2021 23:18:26",40.19,-2.89
Meulaboh,75.81,93,80,5.97,4.1363,96.1285,id,"Sun, 07 Feb 2021 05:24:55",-3.31,89.44
Nabire,75.76,83,99,2.89,-3.3667,135.4833,id,"Sun, 07 Feb 2021 07:18:27",-5.02,137.55
Namatanai,81.77,74,71,3.4,-3.6667,152.4333,pg,"Sun, 07 Feb 2021 08:27:49",-1.26,154.41
Mbandaka,76.03,75,51,3.44,0.0487,18.2603,cd,"Sat, 06 Feb 2021 23:18:27",0.37,19.49
Thio,80.6,74,90,2.3,-21.6167,166.2167,nc,"Sun, 07 Feb 2021 09:18:27",-21.56,166.09
Caravelas,77.4,89,100,8.95,-17.7125,-39.2481,br,"Sat, 06 Feb 2021 19:27:49",-21.94,-24.53
Araouane,75.42,22,100,19.46,18.9048,-3.5265,ml,"Sat, 06 Feb 2021 22:18:27",19.42,-3.67
Dukat,-7.82,89,100,3.31,62.55,155.55,ru,"Sun, 07 Feb 2021 09:18:28",63.33,155.22
Agnibilékrou,79.07,73,80,5.21,7.1344,-3.2047,ci,"Sat, 06 Feb 2021 22:18:28",7.28,-3.21
Aksu,26.29,85,27,3.47,41.1231,80.2644,cn,"Sun, 07 Feb 2021 06:18:28",38.63,81.95
Whyalla,66.2,72,90,11.5,-33.0333,137.5833,au,"Sun, 07 Feb 2021 08:48:28",-33.53,136.94
Kondoa,63.9,94,100,3.18,-4.9,35.7833,tz,"Sun, 07 Feb 2021 01:18:28",-4.96,36.03
Faanui,82.04,67,2,10.71,-16.4833,-151.75,pf,"Sat, 06 Feb 2021 12:24:55",-9.98,-159.99
Malko Tarnovo,46.4,100,90,6.91,41.9833,27.5333,bg,"Sun, 07 Feb 2021 00:18:29",41.92,27.44
Dingle,74.5,91,92,7.78,10.9995,122.6711,ie,"Sun, 07 Feb 2021 06:26:42",51.48,-17.2
Óbidos,84.31,62,76,3.33,-1.9175,-55.5181,br,"Sat, 06 Feb 2021 19:18:29",-1.83,-55.55
Bone,28.99,79,100,8.01,51.9669,12.1396,id,"Sat, 06 Feb 2021 23:18:29",-4.16,121.06
Mahabalipuram,68.0,94,20,7.85,12.6264,80.1722,in,"Sun, 07 Feb 2021 03:48:29",11.5,82.63
Gobabis,74.43,52,4,10.0,-22.45,18.9667,na,"Sun, 07 Feb 2021 00:18:30",-22.44,20.2
Río Gallegos,64.4,27,20,16.11,-51.6226,-69.2181,ar,"Sat, 06 Feb 2021 19:27:14",-51.32,-66.83
Lagoa,60.19,89,100,25.23,39.05,-27.9833,pt,"Sat, 06 Feb 2021 21:27:51",40.97,-27.16
São José da Coroa Grande,78.96,81,51,10.31,-8.8978,-35.1478,br,"Sat, 06 Feb 2021 19:27:29",-14.08,-25.51
Manado,75.2,100,40,1.63,1.487,124.8455,id,"Sun, 07 Feb 2021 06:27:07",2.94,123.15
Karratha,77.29,68,18,9.01,-20.7377,116.8463,au,"Sun, 07 Feb 2021 06:26:18",-20.57,116.02
Kibaya,60.03,98,98,0.85,-5.3,36.5667,tz,"Sun, 07 Feb 2021 01:18:30",-5.5,36.34
St. George's,80.6,69,20,17.27,12.0564,-61.7485,gf,"Sat, 06 Feb 2021 18:18:31",4.11,-51.63
East Stroudsburg,33.01,37,1,13.8,40.9995,-75.1813,us,"Sat, 06 Feb 2021 17:18:31",41.04,-75.1
Waipawa,66.99,59,96,2.3,-41.4122,175.5153,nz,"Sun, 07 Feb 2021 11:27:52",-42.43,175.58
Camopi,71.06,97,100,2.95,3.1655,-52.3158,gf,"Sat, 06 Feb 2021 19:18:31",1.51,-54.22
Muromtsevo,31.77,98,100,16.06,56.3724,75.2418,ru,"Sun, 07 Feb 2021 04:18:32",56.64,75.39
Petropavlovsk-Kamchatskiy,26.6,59,40,22.37,53.0452,158.6483,ru,"Sun, 07 Feb 2021 10:27:53",50.4,162.21
Shirokiy,-24.66,85,0,7.36,49.758,129.523,ru,"Sun, 07 Feb 2021 07:18:32",63.73,148.41
San Felipe,74.75,75,93,7.61,10.3399,-68.7425,mx,"Sat, 06 Feb 2021 18:18:32",31.32,-114.94
Mahébourg,78.8,78,40,4.61,-20.4081,57.7,mu,"Sun, 07 Feb 2021 02:27:54",-48.0,78.99
Fortuna,55.0,87,1,13.8,40.5982,-124.1573,us,"Sat, 06 Feb 2021 14:24:55",35.9,-141.89
Lubao,77.0,83,75,4.61,14.9167,120.55,cd,"Sun, 07 Feb 2021 06:18:33",-4.48,25.26
Clovis,66.0,49,0,3.24,36.8252,-119.7029,us,"Sat, 06 Feb 2021 14:15:10",34.57,-103.24
Cabo San Lucas,78.8,60,1,11.5,22.8909,-109.9124,mx,"Sat, 06 Feb 2021 15:27:54",9.53,-118.36
Cherskiy,-8.3,80,0,5.39,68.75,161.3,ru,"Sun, 07 Feb 2021 09:27:54",81.62,160.83
Bambous Virieux,78.8,78,40,4.61,-20.3428,57.7575,mu,"Sun, 07 Feb 2021 02:27:55",-24.48,62.71
Severo-Kuril'sk,21.51,93,100,14.61,50.6789,156.125,ru,"Sun, 07 Feb 2021 09:27:55",37.54,161.49
Tarumovka,38.89,74,100,7.16,44.0761,46.5361,ru,"Sun, 07 Feb 2021 01:18:34",44.18,46.34
"Leibnitz, Styria",39.0,97,98,0.96,46.7816,15.5384,at,"Sat, 06 Feb 2021 23:18:34",46.83,15.5
Bereda,39.99,100,65,1.01,43.2686,-7.5406,so,"Sat, 06 Feb 2021 23:27:55",14.46,51.09
Kalangala,75.2,78,20,4.72,-0.3089,32.225,ug,"Sun, 07 Feb 2021 01:18:34",-0.66,33.18
Coyhaique,78.8,22,20,8.05,-45.5752,-72.0662,cl,"Sat, 06 Feb 2021 19:18:34",-50.07,-82.52
Visnes,21.99,58,0,4.61,59.3556,5.2242,no,"Sat, 06 Feb 2021 23:18:34",58.05,3.24
Nyurba,-32.69,84,17,2.01,63.2842,118.3319,ru,"Sun, 07 Feb 2021 07:18:35",67.18,117.62
Dera Bugti,56.3,35,0,2.3,29.0307,69.151,pk,"Sun, 07 Feb 2021 03:18:35",29.32,69.38
Nizwá,51.78,63,0,2.46,22.9333,57.5333,om,"Sun, 07 Feb 2021 02:27:56",20.96,56.96
Jumla,26.47,71,0,7.05,29.2747,82.1838,np,"Sun, 07 Feb 2021 04:03:35",31.28,83.83
Esperanza,84.0,62,46,7.0,19.5847,-70.9849,ph,"Sat, 06 Feb 2021 18:18:35",10.72,124.46
São Lourenço da Mata,80.6,69,20,5.75,-8.0022,-35.0183,br,"Sat, 06 Feb 2021 19:18:35",-8.04,-35.08
Oyama,46.0,86,20,2.17,36.3,139.8,jp,"Sun, 07 Feb 2021 07:18:36",30.62,138.94
Trairi,79.21,79,68,8.5,-3.2778,-39.2689,br,"Sat, 06 Feb 2021 19:18:36",2.97,-35.87
Emerald,87.01,62,93,9.22,-23.5333,148.1667,au,"Sun, 07 Feb 2021 08:18:36",-24.34,143.49
Labuhan,77.23,87,33,8.01,-6.8844,112.2051,id,"Sun, 07 Feb 2021 05:27:57",-12.93,98.81
Verkhnyaya Salda,-1.1,92,100,8.39,58.0456,60.5533,ru,"Sun, 07 Feb 2021 03:18:36",58.17,60.62
Inuvik,-20.2,76,100,4.61,68.3499,-133.7218,ca,"Sat, 06 Feb 2021 15:27:57",67.99,-132.36
Hambantota,76.62,84,97,16.64,6.1241,81.1185,lk,"Sun, 07 Feb 2021 03:48:37",-5.94,86.93
Mehamn,26.02,93,100,20.29,71.0357,27.8492,no,"Sat, 06 Feb 2021 23:27:09",77.93,26.8
Aleksinac,50.0,62,0,3.44,43.5417,21.7078,rs,"Sat, 06 Feb 2021 23:18:37",43.79,21.69
Nynäshamn,21.99,74,36,4.0,58.9034,17.9479,se,"Sat, 06 Feb 2021 23:18:37",58.28,17.85
Geraldton,68.0,94,75,20.71,-28.7667,114.6,ca,"Sun, 07 Feb 2021 06:27:58",55.54,-88.04
Kurchum,15.03,94,2,2.57,48.5722,83.6542,kz,"Sun, 07 Feb 2021 04:18:38",47.91,83.54
Luwuk,78.17,71,100,2.28,-0.9516,122.7875,id,"Sun, 07 Feb 2021 06:18:38",-1.9,124.32
Thinadhoo,81.05,76,3,12.91,0.5333,72.9333,mv,"Sun, 07 Feb 2021 03:26:55",-0.89,64.2
Ostrovnoy,9.82,91,96,10.92,68.0531,39.5131,ru,"Sun, 07 Feb 2021 01:26:55",67.75,40.55
Shouguang,35.01,72,0,3.0,36.88,118.7375,cn,"Sun, 07 Feb 2021 06:18:38",37.29,118.94
Bayshore Gardens,77.0,83,75,21.85,27.4253,-82.5904,us,"Sat, 06 Feb 2021 17:18:39",26.16,-85.18
Blind River,21.2,79,90,17.27,46.1834,-82.9582,ca,"Sat, 06 Feb 2021 17:28:00",46.05,-82.84
Carballo,41.0,91,80,1.25,43.213,-8.691,es,"Sat, 06 Feb 2021 23:25:46",45.3,-10.97
Château-Gontier,44.01,87,0,6.91,47.8333,-0.7,fr,"Sat, 06 Feb 2021 23:18:39",47.87,-0.65
Verkhnyaya Khava,5.0,72,90,13.42,51.8404,39.9413,ru,"Sun, 07 Feb 2021 01:18:39",52.05,40.13
Princeton,77.0,94,90,4.61,25.5384,-80.4089,ca,"Sat, 06 Feb 2021 17:18:40",49.3,-120.12
Port Lincoln,61.75,73,71,12.41,-34.7333,135.8667,au,"Sun, 07 Feb 2021 08:48:40",-38.98,134.43
Barcelos,45.0,81,0,6.91,41.5388,-8.6151,br,"Sat, 06 Feb 2021 22:16:14",1.34,-62.67
College,-7.01,77,90,1.16,64.8569,-147.8028,us,"Sat, 06 Feb 2021 13:18:40",67.19,-148.76
Great Bend,21.2,73,90,18.41,38.3645,-98.7648,us,"Sat, 06 Feb 2021 16:17:29",37.7,-98.88
Halmstad,15.8,79,0,12.66,56.6745,12.8568,se,"Sat, 06 Feb 2021 23:17:34",56.56,12.83
Cimarron Hills,42.8,16,1,17.27,38.8586,-104.6989,us,"Sat, 06 Feb 2021 15:16:13",38.8,-103.88
Antofagasta,73.0,77,20,14.97,-23.65,-70.4,cl,"Sat, 06 Feb 2021 19:17:42",-24.08,-70.48
Vanimo,77.52,87,96,5.82,-2.6741,141.3028,pg,"Sun, 07 Feb 2021 08:28:02",4.56,142.74
Naze,62.6,77,75,3.44,28.3667,129.4833,jp,"Sun, 07 Feb 2021 07:28:02",20.45,138.48
Taoudenni,64.0,28,34,10.13,22.6783,-3.9836,ml,"Sat, 06 Feb 2021 22:24:58",23.66,-4.67
Darłowo,21.99,67,61,12.59,54.421,16.4107,pl,"Sat, 06 Feb 2021 23:18:41",54.26,16.51
Alpena,17.6,49,1,12.66,45.0617,-83.4327,us,"Sat, 06 Feb 2021 17:18:42",44.88,-82.79
Challans,37.4,87,0,4.61,46.8436,-1.8749,fr,"Sat, 06 Feb 2021 23:18:42",45.59,-2.95
Manokwari,77.77,85,100,4.5,-0.8667,134.0833,id,"Sun, 07 Feb 2021 07:25:03",1.68,134.66
Banfora,82.62,21,49,3.18,10.6333,-4.7667,bf,"Sat, 06 Feb 2021 22:18:42",10.2,-4.99
Kopavogur,35.6,48,0,18.41,64.1123,-21.913,is,"Sat, 06 Feb 2021 22:18:42",64.18,-21.63
Road Town,78.8,78,40,13.8,18.4167,-64.6167,vg,"Sat, 06 Feb 2021 18:28:03",20.88,-64.56
Perth,64.99,82,75,24.16,-31.9333,115.8333,au,"Sun, 07 Feb 2021 06:15:02",-30.63,115.64
Lovozero,15.89,94,100,7.9,68.005,35.0117,ru,"Sun, 07 Feb 2021 01:18:43",67.41,36.29
Jaraguá,72.99,88,100,7.85,-15.7569,-49.3344,br,"Sat, 06 Feb 2021 19:18:43",-15.87,-49.32
Hammerfest,24.8,86,75,16.11,70.6634,23.6821,no,"Sat, 06 Feb 2021 23:18:43",74.82,21.76
Solone,15.8,86,0,6.71,48.2081,34.8721,ua,"Sun, 07 Feb 2021 00:18:43",48.36,34.72
São Filipe,70.38,72,50,17.16,14.8961,-24.4956,cv,"Sat, 06 Feb 2021 21:28:04",10.04,-35.65
Kieta,83.44,71,46,7.85,-6.2167,155.6333,pg,"Sun, 07 Feb 2021 09:28:04",-1.83,159.75
Dzilam González,87.85,51,0,3.98,21.2833,-88.9333,mx,"Sat, 06 Feb 2021 16:18:44",23.71,-88.62
Lompoc,71.01,42,1,13.8,34.6391,-120.4579,us,"Sat, 06 Feb 2021 14:27:28",23.7,-129.3
Gogrial,68.63,23,55,8.63,8.5332,28.1004,sd,"Sun, 07 Feb 2021 00:18:44",8.29,27.76
Gazli,45.88,68,100,2.71,40.1333,63.45,uz,"Sun, 07 Feb 2021 03:18:44",40.85,63.83
Gao,73.63,19,43,7.76,16.6362,1.637,ml,"Sat, 06 Feb 2021 22:18:44",17.74,-0.68
San Patricio,75.2,60,20,11.5,28.017,-97.5169,mx,"Sat, 06 Feb 2021 16:27:36",15.45,-106.47
Valle Hermoso,73.4,100,90,13.8,25.6667,-97.8333,mx,"Sat, 06 Feb 2021 16:18:44",25.46,-97.5
Baykit,13.42,93,100,5.12,61.67,96.37,ru,"Sun, 07 Feb 2021 05:28:05",65.83,94.41
Itarema,79.72,79,21,12.12,-2.9248,-39.9167,br,"Sat, 06 Feb 2021 19:18:45",8.66,-36.22
São João da Barra,71.6,94,75,13.8,-21.6403,-41.0511,br,"Sat, 06 Feb 2021 19:23:11",-32.61,-22.34
Preston,37.4,93,40,17.27,53.7667,-2.7167,us,"Sat, 06 Feb 2021 22:25:52",42.14,-112.01
Half Moon Bay,66.2,77,1,16.11,37.4636,-122.4286,us,"Sat, 06 Feb 2021 14:28:06",32.38,-134.74
Tongchuanshi,40.01,58,95,5.39,35.0806,109.0897,cn,"Sun, 07 Feb 2021 06:18:46",35.08,108.17
Arrondissement de Nogent-le-Rotrou,44.6,100,100,10.36,48.3333,1.0,fr,"Sat, 06 Feb 2021 23:18:46",48.37,0.92
Laas,39.99,100,75,12.66,46.6166,10.7002,cn,"Sat, 06 Feb 2021 23:28:07",31.28,87.66
Tongliao,-1.39,88,0,9.57,43.6125,122.2653,cn,"Sun, 07 Feb 2021 06:18:46",43.08,122.76
Kenai,17.01,86,90,9.22,60.5544,-151.2583,us,"Sat, 06 Feb 2021 13:18:47",64.25,-155.49
Adrar,58.86,35,57,9.93,20.5022,-10.0711,dz,"Sat, 06 Feb 2021 22:25:53",26.74,-2.47
Nizhniy Baskunchak,26.58,82,100,12.1,48.2198,46.8311,ru,"Sun, 07 Feb 2021 02:18:47",48.41,46.92
Mayna,-6.52,91,99,13.2,54.1135,47.6231,ru,"Sun, 07 Feb 2021 02:18:47",52.49,91.93
Ardakān,50.0,50,20,2.3,32.31,54.0175,ir,"Sun, 07 Feb 2021 01:46:06",33.3,55.1
Oddur,68.32,81,0,15.37,4.1213,43.8894,so,"Sun, 07 Feb 2021 01:18:47",6.31,43.63
Grindavik,32.0,74,0,18.41,63.8424,-22.4338,is,"Sat, 06 Feb 2021 22:28:08",54.51,-23.99
Russell,42.8,87,90,6.91,32.3502,-85.1999,nz,"Sat, 06 Feb 2021 16:15:09",-33.58,175.88
Kamenka,10.0,83,99,11.97,51.3223,42.7678,ru,"Sun, 07 Feb 2021 01:18:48",69.72,43.46
Saint George,61.0,21,1,5.75,37.1041,-113.5841,bm,"Sat, 06 Feb 2021 15:27:45",35.57,-65.51
Ribeira Grande,60.8,94,75,18.41,38.5167,-28.7,pt,"Sat, 06 Feb 2021 21:28:08",40.16,-30.71
Arraial do Cabo,71.6,94,75,3.44,-22.9661,-42.0278,br,"Sat, 06 Feb 2021 19:26:16",-57.34,-17.24
Maumere,78.73,77,99,2.64,-8.6199,122.2111,id,"Sun, 07 Feb 2021 06:18:48",-9.67,122.32
Verkhnyaya Inta,-26.41,84,45,11.45,65.9811,60.3094,ru,"Sun, 07 Feb 2021 01:18:49",64.39,62.18
Aasiaat,17.51,87,5,21.63,68.7098,-52.8699,gl,"Sat, 06 Feb 2021 19:28:09",71.42,-53.02
Novoil'insk,-3.55,88,100,2.37,51.6829,108.7143,ru,"Sun, 07 Feb 2021 06:18:49",51.55,108.75
Kondinskoye,33.12,97,100,13.35,59.6481,67.41,ru,"Sun, 07 Feb 2021 03:18:49",60.33,67.08
Lufilufi,84.0,100,90,16.11,-13.8745,-171.5986,ws,"Sun, 07 Feb 2021 12:18:49",-6.58,-167.69
Strezhevoy,33.8,93,90,11.18,60.7333,77.5889,ru,"Sun, 07 Feb 2021 05:14:21",62.18,79.88
Vila,41.0,84,59,3.8,42.0304,-8.1588,vu,"Sat, 06 Feb 2021 22:24:57",-15.17,172.4
Senneterre,14.0,73,75,10.36,48.3835,-77.2328,ca,"Sat, 06 Feb 2021 17:18:50",48.59,-75.87
Kuandian,14.59,93,34,4.47,40.7286,124.7847,cn,"Sun, 07 Feb 2021 06:18:50",40.47,124.7
Hollister,73.0,32,1,3.67,36.8525,-121.4016,us,"Sat, 06 Feb 2021 14:18:50",36.8,-121.23
Måløy,23.0,73,0,6.91,61.9353,5.1136,no,"Sat, 06 Feb 2021 23:18:51",62.83,2.23
Beauceville,21.2,58,97,4.61,46.2179,-70.7787,ca,"Sat, 06 Feb 2021 17:18:51",46.17,-70.76
Talnakh,-29.06,73,0,2.51,69.4865,88.3972,ru,"Sun, 07 Feb 2021 05:28:11",74.36,93.68
Bud,27.0,55,100,3.4,39.447,-86.1758,no,"Sat, 06 Feb 2021 17:28:11",72.33,2.47
West Melbourne,73.99,94,90,4.61,28.0717,-80.6534,us,"Sat, 06 Feb 2021 17:15:22",27.96,-80.73
Omboué,79.52,84,100,4.21,-1.5746,9.2618,ga,"Sat, 06 Feb 2021 23:18:51",-4.99,3.16
Sakakah,48.2,81,0,10.36,29.9697,40.2064,sa,"Sun, 07 Feb 2021 01:18:52",28.13,40.27
Dhanera,58.15,35,0,6.53,24.5167,72.0167,in,"Sun, 07 Feb 2021 03:48:52",24.47,71.83
Ternate,78.87,82,100,4.34,0.8,127.4,id,"Sun, 07 Feb 2021 07:28:12",1.46,126.55
Iporá,73.38,93,100,4.36,-16.4419,-51.1178,br,"Sat, 06 Feb 2021 19:18:52",-15.98,-51.22
Praia da Vitória,60.8,82,40,12.62,38.7333,-27.0667,pt,"Sat, 06 Feb 2021 21:28:12",50.64,-22.83
Corinth,55.0,81,0,3.49,37.9407,22.9573,us,"Sun, 07 Feb 2021 00:18:52",35.06,-88.63
Amapá,73.47,98,100,2.55,1.0,-52.0,br,"Sat, 06 Feb 2021 19:28:12",3.6,-47.35
Balkanabat,49.73,62,99,7.36,39.5108,54.3671,tm,"Sun, 07 Feb 2021 03:18:52",40.14,53.87
Parrita,82.4,57,20,9.22,9.5201,-84.3225,cr,"Sat, 06 Feb 2021 16:16:28",7.59,-85.76
Salinópolis,79.65,86,43,9.66,-0.6136,-47.3561,br,"Sat, 06 Feb 2021 19:18:53",7.95,-43.14
Shiyan,48.22,50,14,1.25,32.6475,110.7781,cn,"Sun, 07 Feb 2021 06:18:53",32.1,110.71
Kruisfontein,66.99,82,2,1.99,-34.0033,24.7314,za,"Sun, 07 Feb 2021 00:25:04",-72.94,26.83
Yeppoon,82.4,65,74,3.44,-23.1333,150.7333,au,"Sun, 07 Feb 2021 08:18:53",-21.89,150.45
Cestas,46.99,87,0,10.36,44.7435,-0.6791,fr,"Sat, 06 Feb 2021 23:18:54",44.49,-0.64
Ayagoz,29.59,90,100,9.51,47.9714,80.4392,kz,"Sun, 07 Feb 2021 04:28:14",48.01,81.19
Aitape,80.11,77,75,3.98,-3.1374,142.3475,pg,"Sun, 07 Feb 2021 08:18:54",-0.88,143.73
Homer,33.8,69,1,5.75,59.6425,-151.5483,us,"Sat, 06 Feb 2021 13:18:54",58.74,-150.61
Nouadhibou,62.6,72,0,17.27,20.931,-17.0347,mr,"Sat, 06 Feb 2021 22:25:50",20.18,-20.44
Orange,75.99,46,1,3.44,33.7,-117.7675,au,"Sat, 06 Feb 2021 14:18:54",-33.24,148.99
Gold Coast,82.0,69,75,6.91,-28.0,153.4333,au,"Sun, 07 Feb 2021 08:18:55",-27.75,154.06
Antalaha,75.2,86,99,3.69,-14.9003,50.2788,mg,"Sun, 07 Feb 2021 01:17:08",-13.75,55.75
Anchorage,16.0,85,90,5.75,61.2181,-149.9003,us,"Sat, 06 Feb 2021 13:18:29",63.73,-151.79
Aklavik,-20.2,76,90,3.44,68.2191,-135.0107,ca,"Sat, 06 Feb 2021 15:28:15",74.18,-137.49
Sun Valley,54.0,28,1,1.5,39.5963,-119.776,us,"Sat, 06 Feb 2021 14:18:55",39.85,-119.72
Korampallam,73.65,74,10,10.25,8.7667,78.1,in,"Sun, 07 Feb 2021 03:48:55",8.72,78.46
Fairbanks,-6.0,77,90,0.87,64.8378,-147.7164,us,"Sat, 06 Feb 2021 13:26:56",64.21,-147.84
Lavrentiya,-7.69,79,0,3.67,65.5833,-171.0,ru,"Sun, 07 Feb 2021 10:23:58",66.35,-168.58
Sucha Beskidzka,27.0,74,75,18.41,49.7419,19.5943,pl,"Sat, 06 Feb 2021 23:14:26",49.86,19.62
Puerto Cabezas,82.4,94,40,4.61,14.0351,-83.3888,ni,"Sat, 06 Feb 2021 16:18:56",13.97,-82.1
Tawang Town,27.77,89,30,4.47,27.5833,91.8667,in,"Sun, 07 Feb 2021 03:48:56",28.28,92.05
Pacific Grove,70.0,67,1,8.01,36.6177,-121.9166,us,"Sat, 06 Feb 2021 14:25:13",31.29,-131.4
Norman Wells,-29.2,75,75,4.61,65.282,-126.8329,ca,"Sat, 06 Feb 2021 15:28:16",68.9,-125.11
Kavieng,82.72,70,61,2.57,-2.5744,150.7967,pg,"Sun, 07 Feb 2021 08:27:57",13.94,153.34
Shubarkuduk,15.04,96,100,13.67,49.1447,56.4872,kz,"Sun, 07 Feb 2021 03:18:57",47.9,55.95
Atar,61.61,32,25,11.92,20.5169,-13.0499,mr,"Sat, 06 Feb 2021 22:18:57",21.87,-9.76
Harper,79.56,86,22,9.26,4.375,-7.7169,lr,"Sat, 06 Feb 2021 22:26:34",2.54,-7.77
Paramirim,71.74,92,99,2.19,-13.4425,-42.2389,br,"Sat, 06 Feb 2021 19:18:58",-13.05,-42.0
Bilma,64.4,25,89,6.31,18.6853,12.9164,ne,"Sat, 06 Feb 2021 23:18:58",21.3,14.01
Saint-Tite,24.8,58,99,9.22,46.7334,-72.5658,ca,"Sat, 06 Feb 2021 17:18:58",46.8,-72.65
Stephenville,62.6,36,1,18.41,32.2207,-98.2023,ca,"Sat, 06 Feb 2021 16:18:58",49.12,-59.18
Vila Velha,80.6,78,20,3.44,-20.3297,-40.2925,br,"Sat, 06 Feb 2021 19:27:09",-25.31,-27.41
Rantepao,66.76,87,91,2.21,-2.9701,119.8978,id,"Sun, 07 Feb 2021 06:18:58",-2.65,120.37
Quzhou,50.74,88,0,2.26,28.9594,118.8686,cn,"Sun, 07 Feb 2021 06:18:58",28.39,118.92
Salalah,73.4,73,75,8.05,17.0151,54.0924,om,"Sun, 07 Feb 2021 02:24:01",19.74,52.44
Neiafu,80.6,89,75,13.8,-18.65,-173.9833,to,"Sun, 07 Feb 2021 11:18:59",-17.99,-173.88
Avera,44.6,81,90,4.61,33.194,-82.5271,pf,"Sat, 06 Feb 2021 17:25:40",-33.21,-157.0
Bubaque,81.05,55,53,17.31,11.2833,-15.8333,gw,"Sat, 06 Feb 2021 22:28:18",4.62,-20.74
Port Said,60.8,82,0,8.05,31.2565,32.2841,eg,"Sun, 07 Feb 2021 00:28:18",31.69,32.92
Presidencia Roque Sáenz Peña,87.58,30,0,5.37,-26.7852,-60.4388,ar,"Sat, 06 Feb 2021 19:18:59",-26.03,-61.06
Arkhara,-24.11,86,43,5.64,49.4212,130.0842,ru,"Sun, 07 Feb 2021 07:18:59",49.67,130.65
Makkah al Mukarramah,65.79,58,0,6.62,21.4267,39.8261,sa,"Sun, 07 Feb 2021 01:27:42",22.59,42.09
Udachny,-36.45,80,0,5.39,66.4167,112.4,ru,"Sun, 07 Feb 2021 07:19:00",66.5,114.96
Buala,81.41,81,95,10.22,-8.145,159.5921,sb,"Sun, 07 Feb 2021 09:28:19",-2.1,163.7
Rameswaram,77.67,82,18,17.45,9.2833,79.3,in,"Sun, 07 Feb 2021 03:49:00",8.8,79.8
Mbuji-Mayi,72.48,87,100,1.95,-6.15,23.6,cd,"Sun, 07 Feb 2021 00:19:00",-6.32,23.32
Khani,46.4,93,90,8.05,41.9563,42.9566,ru,"Sun, 07 Feb 2021 02:28:20",59.93,119.85
Alice Springs,77.0,33,48,9.22,-23.7,133.8833,au,"Sun, 07 Feb 2021 07:49:01",-21.47,131.95
San Miguel de Cozumel,84.2,74,1,11.5,20.5083,-86.9458,mx,"Sat, 06 Feb 2021 17:19:01",19.96,-85.09
Pingliang,34.65,64,100,3.42,35.5392,106.6861,cn,"Sun, 07 Feb 2021 06:19:01",35.79,106.62
Jizan,71.6,78,0,4.97,17.3333,42.6667,sa,"Sun, 07 Feb 2021 01:28:20",16.32,41.61
Coacoyul,91.99,19,0,5.99,17.8058,-99.11,mx,"Sat, 06 Feb 2021 16:19:01",17.68,-101.44
Kalmunai,76.01,89,35,7.85,7.4167,81.8167,lk,"Sun, 07 Feb 2021 03:56:28",6.43,88.47
Yola,76.44,18,0,2.44,9.2,12.4833,ng,"Sat, 06 Feb 2021 23:19:02",9.12,12.51
Along,49.84,54,29,2.04,28.1667,94.7667,in,"Sun, 07 Feb 2021 03:49:02",33.86,95.53
Ayní,37.72,67,98,9.55,39.3941,68.5377,tj,"Sun, 07 Feb 2021 03:19:02",39.32,68.61
Bandarbeyla,75.56,79,25,12.84,9.4942,50.8122,so,"Sun, 07 Feb 2021 01:28:21",8.05,55.99
Okha,0.16,93,100,10.0,53.5739,142.9478,ru,"Sun, 07 Feb 2021 09:19:03",55.57,146.31
Balaipungut,75.2,94,20,5.75,1.05,101.2833,id,"Sun, 07 Feb 2021 05:19:03",0.47,101.49
Kostanay,15.8,73,0,35.79,53.1667,63.5833,kz,"Sun, 07 Feb 2021 04:19:03",53.12,64.27
Paamiut,21.24,80,0,9.13,61.994,-49.6678,gl,"Sat, 06 Feb 2021 19:28:22",63.66,-48.86
Mossendjo,71.37,97,63,2.06,-2.9506,12.7261,cg,"Sat, 06 Feb 2021 23:19:04",-2.76,13.56
Vilhena,80.6,74,40,6.91,-12.7406,-60.1458,br,"Sat, 06 Feb 2021 18:19:04",-13.49,-60.29
Saint Paul Harbor,37.4,60,20,3.44,57.79,-152.4072,us,"Sat, 06 Feb 2021 13:28:23",58.31,-156.84
Pierre,6.8,36,1,4.61,44.3683,-100.351,us,"Sat, 06 Feb 2021 16:19:04",43.28,-101.53
Chimoré,84.2,66,82,1.14,-16.9833,-65.1333,bo,"Sat, 06 Feb 2021 18:19:05",-16.31,-64.31
Pontes e Lacerda,81.05,68,5,3.71,-15.2261,-59.3353,br,"Sat, 06 Feb 2021 18:19:05",-15.36,-58.69
Mossamedes,71.73,78,38,7.09,-15.1961,12.1522,ao,"Sat, 06 Feb 2021 23:28:24",-17.97,7.5
Maputo,79.0,78,40,2.3,-25.9653,32.5892,mz,"Sun, 07 Feb 2021 00:28:24",-26.17,33.49
Abu Dhabi,68.0,68,0,2.3,24.4667,54.3667,ae,"Sun, 07 Feb 2021 02:27:31",24.66,54.11
Ust'-Ishim,34.02,92,100,12.64,57.6935,71.1665,ru,"Sun, 07 Feb 2021 04:19:06",58.85,70.64
Gonzales,55.4,88,90,5.75,30.2385,-90.9201,us,"Sat, 06 Feb 2021 16:15:15",36.65,-121.43
Norwich,37.4,93,90,21.85,52.6278,1.2983,gb,"Sat, 06 Feb 2021 22:17:28",53.06,1.48
Sur,63.37,62,0,7.14,22.5667,59.5289,om,"Sun, 07 Feb 2021 02:19:06",19.78,62.84
Chifeng,2.8,87,15,4.23,42.2683,118.9636,cn,"Sun, 07 Feb 2021 06:19:06",44.1,119.06
Bushehr,66.2,88,40,5.77,28.9684,50.8385,ir,"Sun, 07 Feb 2021 01:49:06",29.39,50.61
Puttūr,73.4,78,0,3.44,12.7667,75.2167,in,"Sun, 07 Feb 2021 03:49:06",13.51,79.55
Bariloche,90.0,11,0,20.71,-41.1456,-71.3082,ar,"Sat, 06 Feb 2021 19:28:26",-41.02,-70.61
Sambava,75.67,89,93,4.81,-14.2667,50.1667,mg,"Sun, 07 Feb 2021 01:28:26",-12.86,53.27
Rincon,50.0,87,90,8.05,32.296,-81.2354,an,"Sat, 06 Feb 2021 17:28:26",13.28,-67.58
Sorong,79.81,81,100,2.93,-0.8833,131.25,id,"Sun, 07 Feb 2021 07:15:34",0.85,130.02
Matagami,10.4,85,90,9.22,49.7502,-77.6328,ca,"Sat, 06 Feb 2021 17:17:30",50.36,-79.07
Ganzhou,50.76,85,0,2.51,28.8184,115.4327,cn,"Sun, 07 Feb 2021 06:19:07",25.75,114.7
Flinders,73.0,78,1,1.01,-34.5833,150.8552,au,"Sun, 07 Feb 2021 09:28:26",-28.8,134.29
Iranshahr,57.2,21,0,1.77,27.2025,60.6848,ir,"Sun, 07 Feb 2021 01:49:08",26.65,59.91
Escalerillas,80.6,5,1,11.5,22.1333,-101.0667,mx,"Sat, 06 Feb 2021 16:19:08",22.09,-101.09
Saurimo,67.08,97,100,2.66,-9.6608,20.3916,ao,"Sat, 06 Feb 2021 23:28:27",-9.08,19.49
Visakhapatnam,66.2,77,3,2.3,17.69,83.2093,in,"Sun, 07 Feb 2021 03:49:08",17.17,84.08
Hasaki,35.6,80,0,4.61,35.7333,140.8333,jp,"Sun, 07 Feb 2021 07:28:27",30.87,151.71
San Cristobal,86.0,58,40,9.22,7.7669,-72.225,ec,"Sat, 06 Feb 2021 18:26:52",-2.67,-87.69
Novaya Bryan’,-13.0,77,100,2.24,51.7159,108.2691,ru,"Sun, 07 Feb 2021 06:19:09",51.59,107.93
Ballina,78.8,73,4,2.3,-28.8667,153.5667,au,"Sun, 07 Feb 2021 09:24:27",-30.08,155.83
Codrington,58.41,71,100,12.88,-38.2667,141.9667,ag,"Sun, 07 Feb 2021 09:26:50",26.53,-51.9
Prince Rupert,39.2,93,90,5.59,54.3161,-130.3201,ca,"Sat, 06 Feb 2021 14:28:11",51.91,-131.4
Carutapera,80.35,79,56,6.73,-1.195,-46.02,br,"Sat, 06 Feb 2021 19:19:09",0.74,-45.51
Huarmey,74.08,69,70,10.85,-10.0681,-78.1522,pe,"Sat, 06 Feb 2021 17:19:10",-14.99,-86.75
Usinsk,-33.83,82,99,13.78,65.9939,57.5281,ru,"Sun, 07 Feb 2021 01:28:29",69.15,57.81
Iraquara,73.4,94,57,5.75,-12.2486,-41.6194,br,"Sat, 06 Feb 2021 19:28:29",-12.24,-41.46
Beloha,75.24,92,10,6.46,-25.1667,45.05,mg,"Sun, 07 Feb 2021 01:27:57",-25.68,44.41
Hwange,70.0,90,99,1.92,-18.3693,26.5019,zw,"Sun, 07 Feb 2021 00:19:10",-18.71,27.15
Portland,46.4,87,90,19.57,45.5234,-122.6762,au,"Sat, 06 Feb 2021 14:17:53",-45.6,139.94
Kutum,49.87,45,0,7.74,14.2,24.6667,sd,"Sun, 07 Feb 2021 00:28:30",14.47,24.18
Port Hardy,44.6,75,75,12.66,50.6996,-127.4199,ca,"Sat, 06 Feb 2021 14:28:30",46.16,-133.15
Richards Bay,73.38,87,96,7.25,-28.783,32.0377,za,"Sun, 07 Feb 2021 00:28:30",-30.95,34.6
Kaoma,66.74,94,64,4.65,-14.7833,24.8,zm,"Sun, 07 Feb 2021 00:19:11",-16.02,25.17
Santa Helena,79.11,75,83,3.56,-2.2311,-45.3,co,"Sat, 06 Feb 2021 19:19:11",6.5,-73.6
Sistranda,23.0,80,40,11.5,63.7256,8.834,no,"Sat, 06 Feb 2021 23:27:36",71.92,4.35
Carauari,81.23,88,81,2.51,-4.8828,-66.8958,br,"Sat, 06 Feb 2021 18:19:11",-6.15,-67.04
Guerrero Negro,72.54,37,0,9.6,27.9769,-114.0611,mx,"Sat, 06 Feb 2021 15:25:54",25.25,-118.01
Zhangjiakou Shi Xuanhua Qu,20.66,82,0,6.08,40.6103,115.0447,cn,"Sun, 07 Feb 2021 06:19:12",39.7,114.41
Khandyga,-25.53,86,100,1.99,62.6667,135.6,ru,"Sun, 07 Feb 2021 07:19:12",64.55,137.36
Griffith,15.8,62,90,8.05,41.5284,-87.4237,au,"Sat, 06 Feb 2021 16:28:31",-34.16,145.82
Yanta,35.76,80,0,18.03,36.2411,115.6672,cn,"Sun, 07 Feb 2021 06:19:12",36.48,115.26
Souillac,78.8,78,40,4.61,-20.5167,57.5167,mu,"Sun, 07 Feb 2021 02:25:15",-35.81,64.53
Xiaoweizhai,51.85,79,97,1.12,26.1903,107.5125,cn,"Sun, 07 Feb 2021 06:19:13",25.64,106.9
Asău,28.0,73,100,3.47,46.4333,26.4,tv,"Sun, 07 Feb 2021 00:24:57",-12.18,178.25
Sharan,-3.08,90,100,16.26,54.8167,54.0,ru,"Sun, 07 Feb 2021 03:19:13",54.78,54.01
Taltal,68.36,63,22,6.22,-25.4,-70.4833,cl,"Sat, 06 Feb 2021 19:28:32",-26.03,-74.25
Dorado,80.6,61,40,14.97,18.4588,-66.2677,us,"Sat, 06 Feb 2021 18:18:44",20.49,-66.35
Ust-Kuyga,-29.2,83,100,3.4,70.0167,135.6,ru,"Sun, 07 Feb 2021 08:28:32",70.69,133.45
Kiama,73.0,79,2,1.01,-34.6833,150.8667,au,"Sun, 07 Feb 2021 09:19:14",-36.42,153.93
Kati,86.0,14,0,9.22,12.7441,-8.0726,ml,"Sat, 06 Feb 2021 22:19:14",13.15,-8.25
Santa Rosalía,69.55,25,17,9.46,27.3167,-112.2833,mx,"Sat, 06 Feb 2021 15:19:14",18.11,-93.73
Heihe,-22.0,76,0,2.24,50.2441,127.4902,cn,"Sun, 07 Feb 2021 06:19:14",50.05,126.75
Talaya,-14.15,85,100,2.37,61.3833,152.75,ru,"Sun, 07 Feb 2021 09:19:14",60.07,154.52
Nieuwpoort,33.8,93,90,20.71,51.1244,2.7735,an,"Sat, 06 Feb 2021 23:28:33",11.93,-68.74
Mosquera,62.6,77,40,6.91,4.7059,-74.2302,co,"Sat, 06 Feb 2021 17:18:14",2.58,-78.69
Vyazovaya,0.18,87,100,16.8,54.905,58.3561,ru,"Sun, 07 Feb 2021 03:19:15",54.95,58.39
Poplar Bluff,37.4,70,90,9.22,36.757,-90.3929,us,"Sat, 06 Feb 2021 16:18:09",36.99,-90.02
Kargat,26.15,96,83,16.15,55.1956,80.2811,ru,"Sun, 07 Feb 2021 05:19:15",55.28,80.28
Ayan,-4.86,89,100,16.33,56.45,138.1667,ru,"Sun, 07 Feb 2021 08:19:15",57.44,140.0
Rafrāf,64.4,63,40,3.44,37.1904,10.1837,tn,"Sat, 06 Feb 2021 23:19:15",37.7,10.53
Cockburn Town,78.8,73,40,17.27,21.4612,-71.1419,tc,"Sat, 06 Feb 2021 17:24:58",24.29,-66.28
Idritsa,1.45,94,92,4.79,56.3316,28.8988,ru,"Sun, 07 Feb 2021 01:19:16",56.03,29.06
Ryazan,-6.32,90,81,9.66,54.6197,39.74,ru,"Sun, 07 Feb 2021 01:17:12",54.7,39.74
Banda Aceh,77.95,81,55,7.74,5.5577,95.3222,id,"Sun, 07 Feb 2021 05:19:16",1.16,88.29
Pudozh,7.47,95,100,4.9,61.8099,36.5345,ru,"Sun, 07 Feb 2021 01:19:16",62.47,37.1
Zyryanka,-19.43,84,52,8.68,65.75,150.85,ru,"Sun, 07 Feb 2021 09:19:16",66.55,151.3
Santa Cruz Cabrália,78.8,78,40,11.5,-16.2781,-39.0247,br,"Sat, 06 Feb 2021 19:15:48",-16.29,-38.37
Rosetta,55.4,88,0,3.44,31.4044,30.4164,eg,"Sun, 07 Feb 2021 00:28:36",32.72,30.79
Sarh,75.2,31,0,5.73,9.1429,18.3923,td,"Sat, 06 Feb 2021 23:19:17",8.85,18.63
Íos,59.0,94,0,8.05,36.7333,25.2833,gr,"Sun, 07 Feb 2021 00:19:17",36.8,25.22
Puerto Ayacucho,90.18,50,97,1.41,5.6639,-67.6236,ve,"Sat, 06 Feb 2021 18:19:17",4.9,-65.88
Umm Kaddadah,60.4,33,0,13.58,13.6017,26.6876,sd,"Sun, 07 Feb 2021 00:19:18",14.39,27.32
Sabang,81.99,76,59,13.71,5.8933,95.3214,ph,"Sun, 07 Feb 2021 05:28:36",14.79,123.16
Arica,73.4,64,0,8.05,-18.475,-70.3042,cl,"Sat, 06 Feb 2021 19:15:13",-18.53,-71.16
Sola,82.4,94,40,5.39,-13.8833,167.55,vu,"Sun, 07 Feb 2021 09:27:01",-11.03,171.63
Mangan,45.61,52,7,8.19,27.5167,88.5333,in,"Sun, 07 Feb 2021 03:58:37",28.47,87.93
Namwala,67.19,97,60,3.74,-15.7504,26.4384,zm,"Sun, 07 Feb 2021 00:28:37",-16.41,25.48
Bandar-e Anzali,51.37,88,100,1.95,37.4727,49.4622,ir,"Sun, 07 Feb 2021 01:49:19",37.36,49.48
Maceió,78.8,83,0,11.5,-9.6658,-35.7353,br,"Sat, 06 Feb 2021 19:17:17",-17.2,-26.71
Toronto,23.0,53,100,13.44,43.7001,-79.4163,ca,"Sat, 06 Feb 2021 17:27:41",43.64,-79.58
Kletnya,-3.05,92,93,6.98,53.3897,33.2171,ru,"Sun, 07 Feb 2021 01:19:19",53.19,33.35
Cururupu,78.28,81,88,3.69,-1.8283,-44.8683,br,"Sat, 06 Feb 2021 19:19:19",0.82,-43.32
Sioux Lookout,-11.2,64,90,13.8,50.1001,-91.917,ca,"Sat, 06 Feb 2021 16:28:38",51.32,-92.32
Marawi,72.0,90,100,5.01,7.9986,124.2928,sd,"Sun, 07 Feb 2021 06:28:38",19.39,27.92
Maragogi,78.76,81,66,10.27,-9.0122,-35.2225,br,"Sat, 06 Feb 2021 19:19:20",-15.85,-25.98
Deputatsky,-33.72,86,3,1.3,69.3,139.9,ru,"Sun, 07 Feb 2021 08:28:38",72.84,140.28
Wyndham,53.01,28,1,2.19,37.6985,-77.6125,nz,"Sat, 06 Feb 2021 17:19:20",-46.24,169.23
Hamada,39.99,34,50,3.0,34.8833,132.0833,jp,"Sun, 07 Feb 2021 07:19:20",35.7,131.41
Formosa do Rio Preto,72.45,80,100,2.66,-11.0483,-45.1931,br,"Sat, 06 Feb 2021 19:19:20",-11.07,-44.91
Roald,28.4,59,75,9.22,62.5833,6.1333,no,"Sat, 06 Feb 2021 23:19:21",68.23,3.91
Shūshtar,60.24,82,100,13.38,32.0455,48.8567,ir,"Sun, 07 Feb 2021 01:48:23",31.72,48.65
Varna,42.8,100,90,4.61,43.2167,27.9167,ru,"Sun, 07 Feb 2021 00:19:21",52.93,61.2
Yerbogachën,-9.35,90,98,4.88,61.2767,108.0108,ru,"Sun, 07 Feb 2021 06:28:37",59.67,108.87
Coudekerque-Branche,41.0,93,90,20.71,51.0229,2.3936,fr,"Sat, 06 Feb 2021 23:19:21",50.96,2.5
North Branch,-2.2,50,1,12.66,45.5113,-92.9802,us,"Sat, 06 Feb 2021 16:19:23",46.13,-92.98
Grand Gaube,77.0,85,3,1.99,-20.0064,57.6608,mu,"Sun, 07 Feb 2021 02:19:23",-12.77,65.33
Arshan',24.8,74,100,11.18,46.2732,44.22,ru,"Sun, 07 Feb 2021 01:19:23",45.89,44.02
Baytown,66.99,76,93,3.04,29.7355,-94.9774,us,"Sat, 06 Feb 2021 16:17:15",29.74,-94.86
Kirakira,79.12,85,100,8.03,-10.4544,161.9205,sb,"Sun, 07 Feb 2021 09:19:23",-10.77,162.98
Mihara,39.2,87,0,3.44,34.4,133.0833,jp,"Sun, 07 Feb 2021 07:19:23",34.47,132.99
Lumphat,69.39,75,84,7.23,13.4878,106.9816,kh,"Sun, 07 Feb 2021 05:19:24",13.94,106.95
Loreto,77.38,16,4,17.4,22.2667,-101.9667,mx,"Sat, 06 Feb 2021 16:19:24",26.29,-110.73
Manavālakurichi,78.8,89,40,8.34,8.1333,77.3,in,"Sun, 07 Feb 2021 03:49:24",7.72,76.92
Kibungo,64.4,100,75,2.3,-2.1597,30.5427,rw,"Sun, 07 Feb 2021 00:19:24",-1.98,30.78
Aykhal,-32.78,81,4,6.96,66.0,111.5,ru,"Sun, 07 Feb 2021 07:28:41",66.53,109.42
Karlstad,15.8,86,52,8.05,59.3793,13.5036,se,"Sat, 06 Feb 2021 23:18:58",59.27,13.79
Richmond,53.01,35,75,5.75,37.5538,-77.4603,za,"Sat, 06 Feb 2021 17:15:09",-30.17,30.35
Sarkand,39.88,68,100,7.4,45.41,79.9186,kz,"Sun, 07 Feb 2021 04:19:25",45.59,81.11
Tiznit Province,49.1,82,31,15.79,29.5833,-9.5,ma,"Sat, 06 Feb 2021 23:18:12",27.83,-10.15
Santa Cruz de la Sierra,86.0,48,20,2.3,-17.8,-63.1667,cr,"Sat, 06 Feb 2021 18:15:02",9.28,-89.21
Segezha,18.43,97,100,10.0,63.7415,34.3222,ru,"Sun, 07 Feb 2021 01:19:25",63.89,33.47
Sande,30.0,59,100,26.46,53.5049,8.0142,no,"Sat, 06 Feb 2021 23:19:25",61.37,5.66
Rawlins,30.99,55,90,32.21,41.7911,-107.2387,us,"Sat, 06 Feb 2021 15:19:25",41.54,-106.58
Dawson Creek,-14.8,64,1,3.44,55.7666,-120.2362,ca,"Sat, 06 Feb 2021 15:17:53",56.59,-120.03
Copiapó,66.2,68,40,12.66,-27.3667,-70.3333,cl,"Sat, 06 Feb 2021 19:17:42",-28.41,-68.85
Canavieiras,79.03,81,97,7.63,-15.675,-38.9472,br,"Sat, 06 Feb 2021 19:19:26",-15.32,-37.58
Xingyi,47.41,96,10,2.86,24.1877,102.817,cn,"Sun, 07 Feb 2021 06:19:26",25.63,105.28
Gemeente Goirle,32.0,100,75,19.57,51.5167,5.05,nl,"Sat, 06 Feb 2021 23:19:26",51.51,5.03
Karaton,80.6,83,75,9.22,-6.3424,106.1045,kz,"Sun, 07 Feb 2021 05:19:26",45.83,52.51
Viedma,70.0,58,25,20.92,-40.8135,-62.9967,ar,"Sat, 06 Feb 2021 19:19:27",-41.44,-62.76
Te Anau,65.44,56,6,2.19,-45.4167,167.7167,nz,"Sun, 07 Feb 2021 11:19:27",-39.22,161.41
Show Low,52.0,15,1,3.44,34.2542,-110.0298,us,"Sat, 06 Feb 2021 15:19:27",34.98,-109.75
Egvekinot,-6.36,76,3,7.34,66.3167,-179.1667,ru,"Sun, 07 Feb 2021 10:19:27",66.5,-178.8
Raahe,10.4,85,0,10.36,64.6833,24.4833,fi,"Sun, 07 Feb 2021 00:19:27",64.71,24.59
Mayumba,80.01,81,100,2.51,-3.432,10.6554,ga,"Sat, 06 Feb 2021 23:28:45",-3.99,10.81
Rizhao,39.07,71,42,11.41,35.4275,119.4553,cn,"Sun, 07 Feb 2021 06:19:27",35.35,119.53
Laguna,64.0,48,1,4.61,38.421,-121.4238,br,"Sat, 06 Feb 2021 14:28:46",-46.82,-28.22
Ca Mau,72.5,89,88,0.96,9.1769,105.15,vn,"Sun, 07 Feb 2021 05:19:28",7.0,105.83
Hervey Bay,82.4,61,3,10.36,-25.2986,152.8535,au,"Sun, 07 Feb 2021 08:19:28",-24.17,158.17
Zhaotong,37.45,86,81,4.88,27.3167,103.7167,cn,"Sun, 07 Feb 2021 06:19:28",27.46,103.9
Yumen,27.46,69,98,1.99,40.2833,97.2,cn,"Sun, 07 Feb 2021 06:28:46",41.17,96.45
Manadhoo,81.54,71,9,8.48,5.7667,73.3833,mv,"Sun, 07 Feb 2021 03:28:46",5.83,74.69
Golden,46.99,18,40,24.16,39.7555,-105.2211,ca,"Sat, 06 Feb 2021 15:15:08",50.91,-117.5
Tura,56.01,70,100,1.61,25.5198,90.2201,ru,"Sun, 07 Feb 2021 03:57:25",66.88,96.74
Takaka,66.99,73,88,3.0,-40.85,172.8,nz,"Sun, 07 Feb 2021 11:28:47",-39.86,172.51
Stornoway,37.4,70,75,21.85,58.2093,-6.3865,gb,"Sat, 06 Feb 2021 22:28:47",58.82,-6.39
Newport,39.99,92,35,13.18,51.5877,-2.9984,us,"Sat, 06 Feb 2021 22:28:48",44.52,-124.93
Fort Nelson,-16.6,69,1,3.44,58.8053,-122.7002,ca,"Sat, 06 Feb 2021 15:28:48",58.86,-125.09
Jalu,60.62,38,0,8.37,29.0331,21.5482,ly,"Sun, 07 Feb 2021 00:28:48",26.14,21.77
Sosnogorsk,-20.2,86,100,12.71,63.6023,53.8817,ru,"Sun, 07 Feb 2021 01:19:30",64.2,54.33
Cabo Rojo,82.0,66,61,1.01,18.0866,-67.1457,us,"Sat, 06 Feb 2021 18:19:30",17.11,-67.85
Dunda,67.41,90,100,1.5,-8.1167,34.25,tz,"Sun, 07 Feb 2021 01:19:30",-8.11,34.51
Moussoro,67.55,22,73,11.25,13.6408,16.4901,td,"Sat, 06 Feb 2021 23:19:30",15.76,17.78
Pitimbu,80.6,78,20,5.75,-7.4706,-34.8086,br,"Sat, 06 Feb 2021 19:28:49",-7.19,-29.14
Honāvar,71.13,49,43,4.5,14.2833,74.45,in,"Sun, 07 Feb 2021 03:49:31",13.61,73.01
Camaná,72.84,73,100,4.65,-16.6228,-72.7111,pe,"Sat, 06 Feb 2021 17:28:49",-20.86,-76.24
Kolondiéba,86.02,16,100,4.94,11.0882,-6.8926,ml,"Sat, 06 Feb 2021 22:19:31",10.93,-6.91
Buluang,73.18,92,57,3.65,13.3068,123.3425,ph,"Sun, 07 Feb 2021 06:19:31",13.43,116.32
Ixtapa,77.0,69,75,10.36,20.7,-105.2,mx,"Sat, 06 Feb 2021 16:28:50",9.68,-105.08
