City Name,Temperature (F),Humidity %,Cloud Coverage %,Wind Speed (mph),City Latitude,City Longitude,City Country,City Local Date_Time,Random_Latitude,Random_Longitude
Rikitea,77.63,71,96,11.5,-23.1203,-134.9692,pf,"Sun, 07 Feb 2021 10:13:34",-45.98,-138.65
Puerto Ayora,84.2,70,0,17.27,-0.7393,-90.3518,ec,"Sun, 07 Feb 2021 13:13:34",-6.42,-102.73
Saskylakh,-37.95,78,25,12.33,71.9167,114.0833,ru,"Mon, 08 Feb 2021 03:59:22",72.34,114.57
Aksarka,-16.89,88,100,29.59,66.5606,67.7975,ru,"Mon, 08 Feb 2021 00:13:34",64.74,68.78
Barrow,-23.8,76,20,11.5,71.2906,-156.7887,us,"Sun, 07 Feb 2021 10:11:58",69.86,-161.43
Wuwei,29.12,73,79,4.65,37.9281,102.6414,cn,"Mon, 08 Feb 2021 03:13:35",37.73,103.61
Albany,28.99,73,100,4.23,42.6001,-73.9662,au,"Sun, 07 Feb 2021 14:11:15",-89.31,111.88
Touros,87.8,62,40,17.27,-5.1989,-35.4608,br,"Sun, 07 Feb 2021 16:05:10",-2.73,-30.08
Port Elizabeth,68.0,94,75,10.36,-33.918,25.5701,za,"Sun, 07 Feb 2021 21:09:34",-56.51,28.03
Mataura,53.46,80,98,1.95,-46.1927,168.8643,pf,"Mon, 08 Feb 2021 08:13:35",-79.98,-165.38
Bluff,55.56,80,98,5.64,-46.6,168.3333,nz,"Mon, 08 Feb 2021 08:13:35",-81.67,174.82
Srandakan,76.21,89,100,4.63,-7.9386,110.2506,id,"Mon, 08 Feb 2021 02:09:18",-17.36,106.97
Ponta do Sol,59.0,69,49,5.99,32.6667,-17.1,cv,"Sun, 07 Feb 2021 19:13:36",23.27,-28.7
Broome,33.01,93,90,10.36,42.2506,-75.833,au,"Sun, 07 Feb 2021 14:13:36",-18.31,121.2
Makakilo City,71.6,56,1,3.44,21.3469,-158.0858,us,"Sun, 07 Feb 2021 09:13:36",4.95,-165.92
Hamilton,24.01,42,1,6.91,39.1834,-84.5333,us,"Sun, 07 Feb 2021 14:07:01",46.37,-114.47
Oranjemund,64.08,78,0,23.15,-28.55,16.4333,na,"Sun, 07 Feb 2021 21:13:37",-29.09,14.24
East London,71.6,88,40,3.44,-33.0153,27.9116,za,"Sun, 07 Feb 2021 21:04:46",-50.39,38.03
Khatanga,-31.05,79,0,10.18,71.9667,102.5,ru,"Mon, 08 Feb 2021 02:13:22",74.1,96.63
Upernavik,18.46,79,7,3.33,72.7868,-56.1549,gl,"Sun, 07 Feb 2021 16:13:37",76.36,-55.59
Bida,87.46,13,5,1.86,9.0833,6.0167,ng,"Sun, 07 Feb 2021 20:13:37",9.4,6.22
Chokurdakh,-22.59,86,99,7.85,70.6333,147.9167,ru,"Mon, 08 Feb 2021 06:13:37",73.63,151.14
Kapaa,66.2,63,1,9.22,22.0752,-159.319,us,"Sun, 07 Feb 2021 09:13:37",38.89,-157.38
Kumul,31.55,79,2,4.97,42.8,93.45,cn,"Mon, 08 Feb 2021 03:09:29",42.47,91.52
Saint-Philippe,80.6,74,90,4.61,-21.3585,55.7679,re,"Sun, 07 Feb 2021 23:13:38",-33.31,60.59
Yellowknife,-43.6,66,1,5.75,62.456,-114.3525,ca,"Sun, 07 Feb 2021 12:13:39",76.6,-109.27
Port Macquarie,66.99,93,100,11.16,-31.4333,152.9167,au,"Mon, 08 Feb 2021 06:08:26",-36.36,161.4
Seydi,55.22,59,100,7.61,39.4816,62.9137,tm,"Mon, 08 Feb 2021 00:13:39",38.86,62.82
Wasilla,3.2,84,1,0.76,61.5814,-149.4394,us,"Sun, 07 Feb 2021 10:13:39",63.78,-151.51
Kodumudi,71.2,61,3,3.85,11.0775,77.8836,in,"Mon, 08 Feb 2021 00:43:39",11.09,77.94
Machalí,73.4,60,20,5.06,-34.1833,-70.6667,cl,"Sun, 07 Feb 2021 16:13:39",-34.18,-69.52
Ushuaia,62.6,45,40,9.22,-54.8,-68.3,ar,"Sun, 07 Feb 2021 16:09:23",-85.97,-49.25
Leningradskiy,-13.9,80,0,6.24,69.3833,178.4167,ru,"Mon, 08 Feb 2021 07:13:40",86.82,179.35
Hithadhoo,82.02,70,83,8.19,-0.6,73.0833,mv,"Mon, 08 Feb 2021 00:04:03",-13.93,85.06
Thompson,-31.0,68,90,18.41,55.7435,-97.8558,ca,"Sun, 07 Feb 2021 13:13:40",77.93,-95.3
Ilulissat,26.6,36,0,17.27,69.2167,-51.1,gl,"Sun, 07 Feb 2021 16:05:53",79.96,-45.34
Sitka,32.0,43,1,3.42,57.0531,-135.33,us,"Sun, 07 Feb 2021 10:03:49",49.62,-143.22
Inta,-14.24,89,100,10.16,66.0317,60.1659,ru,"Sun, 07 Feb 2021 22:13:41",67.64,59.03
Biloela,76.86,82,45,0.49,-24.4167,150.5,au,"Mon, 08 Feb 2021 05:13:41",-24.52,150.77
Svetlaya,1.29,84,100,11.86,46.5389,138.3297,ru,"Mon, 08 Feb 2021 05:13:41",45.46,137.8
Samdrup Jongkhar District,53.71,54,50,4.76,26.9167,91.6167,bt,"Mon, 08 Feb 2021 01:11:10",26.91,91.59
Pevek,-7.11,86,0,1.68,69.7008,170.3133,ru,"Mon, 08 Feb 2021 07:13:36",86.44,173.96
Davila,75.2,88,75,1.14,18.4726,120.5763,ph,"Mon, 08 Feb 2021 03:13:41",18.5,120.25
Rafaela,90.0,25,0,3.38,-31.2503,-61.4867,ar,"Sun, 07 Feb 2021 16:10:13",-31.94,-61.53
Cape Town,69.01,60,0,25.32,-33.9258,18.4232,za,"Sun, 07 Feb 2021 21:01:36",-59.99,-12.7
Vaini,78.8,89,75,12.66,-21.2,-175.2,to,"Mon, 08 Feb 2021 08:13:42",-62.73,-169.07
Provideniya,-3.93,79,100,16.67,64.3833,-173.3,ru,"Mon, 08 Feb 2021 07:04:00",58.43,-170.46
Bonthe,80.29,78,28,9.82,7.5264,-12.505,sl,"Sun, 07 Feb 2021 19:13:42",2.14,-16.45
Atuona,79.41,75,23,21.63,-9.8,-139.0333,pf,"Sun, 07 Feb 2021 09:43:17",5.12,-134.45
Talcahuano,64.4,72,90,8.05,-36.7167,-73.1167,cl,"Sun, 07 Feb 2021 16:13:43",-35.13,-75.39
Lata,55.0,99,100,13.0,40.1629,-8.3327,sb,"Sun, 07 Feb 2021 19:13:43",-6.38,165.62
Lüderitz,71.65,59,0,30.71,-26.6481,15.1594,na,"Sun, 07 Feb 2021 21:03:57",-34.91,-1.15
Taganak,80.6,89,20,5.75,6.0833,118.3,ph,"Mon, 08 Feb 2021 03:13:43",6.49,117.99
Airai,60.46,100,100,2.82,-8.9266,125.4092,pw,"Mon, 08 Feb 2021 04:13:43",15.51,145.38
Bredasdorp,68.0,60,3,5.75,-34.5322,20.0403,za,"Sun, 07 Feb 2021 21:13:43",-82.26,24.47
Piranshahr,37.62,77,12,5.21,36.701,45.1413,ir,"Sun, 07 Feb 2021 22:43:43",36.66,45.01
Miquelon,32.0,64,75,35.68,47.0975,-56.3814,pm,"Sun, 07 Feb 2021 16:13:44",47.92,-56.77
Panguna,69.44,95,69,0.47,-6.3164,155.4848,pg,"Mon, 08 Feb 2021 06:05:59",-6.95,154.3
Carnarvon,77.0,100,40,12.66,-24.8667,113.6333,au,"Mon, 08 Feb 2021 03:11:07",-21.49,102.88
Busselton,63.0,99,98,1.01,-33.65,115.3333,au,"Mon, 08 Feb 2021 03:12:15",-84.15,80.38
Poum,80.01,72,100,7.58,-20.2333,164.0167,nc,"Mon, 08 Feb 2021 06:13:44",-16.87,163.34
Thap Than,78.01,66,0,4.03,15.4606,99.8917,th,"Mon, 08 Feb 2021 02:13:44",15.26,99.37
Rocha,75.7,64,37,13.06,-34.4833,-54.3333,uy,"Sun, 07 Feb 2021 16:04:40",-48.82,-40.98
Kousséri,77.0,18,1,3.44,12.0769,15.0306,cm,"Sun, 07 Feb 2021 20:13:45",11.69,15.21
Nelson Bay,69.8,78,75,11.5,-32.7167,152.15,au,"Mon, 08 Feb 2021 06:13:45",-33.8,153.49
Mar del Plata,59.0,94,90,9.22,-38.0023,-57.5575,ar,"Sun, 07 Feb 2021 16:13:45",-57.56,-45.16
Saint Anthony,-4.0,54,1,5.86,45.0205,-93.218,ca,"Sun, 07 Feb 2021 13:13:25",51.86,-52.79
Castelbuono,57.99,82,90,5.88,37.932,14.0886,it,"Sun, 07 Feb 2021 20:13:45",37.81,14.03
Palafrugell,51.01,24,100,6.38,41.9174,3.1631,es,"Sun, 07 Feb 2021 20:13:46",41.83,4.38
Maxixe,82.4,69,20,7.27,-23.8597,35.3472,mz,"Sun, 07 Feb 2021 21:13:46",-24.19,34.78
Nanortalik,30.79,88,100,13.13,60.1432,-45.2371,gl,"Sun, 07 Feb 2021 16:13:46",50.65,-40.39
Nikolskoye,17.6,86,90,11.18,59.7035,30.7861,ru,"Sun, 07 Feb 2021 22:13:46",34.26,178.89
Butaritari,80.87,80,100,20.38,3.0707,172.7902,ki,"Mon, 08 Feb 2021 07:13:21",22.67,170.17
Comodoro Rivadavia,64.4,59,20,18.41,-45.8667,-67.5,ar,"Sun, 07 Feb 2021 16:13:32",-46.42,-68.79
Ahipara,61.61,83,17,8.16,-35.1667,173.1667,nz,"Mon, 08 Feb 2021 08:04:12",-35.43,172.72
Jamestown,18.0,73,90,17.27,42.097,-79.2353,sh,"Sun, 07 Feb 2021 14:12:36",-20.22,-4.36
Katsuura,46.4,46,75,3.44,35.1333,140.3,jp,"Mon, 08 Feb 2021 04:13:47",18.86,151.53
Hong Kong,68.0,84,0,11.07,22.2855,114.1577,sc,"Mon, 08 Feb 2021 03:01:05",-6.35,61.24
Abhā,55.4,62,0,7.56,18.2164,42.5053,sa,"Sun, 07 Feb 2021 22:06:48",21.03,43.0
Hermanus,66.99,76,2,1.01,-34.4187,19.2345,za,"Sun, 07 Feb 2021 21:13:47",-52.68,10.85
Nhulunbuy,80.6,83,75,6.91,-12.2333,136.7667,au,"Mon, 08 Feb 2021 04:43:47",-12.94,140.33
Hilo,75.0,49,20,4.61,19.7297,-155.09,us,"Sun, 07 Feb 2021 09:13:01",15.09,-154.36
North Bend,48.2,71,20,6.91,43.4065,-124.2243,us,"Sun, 07 Feb 2021 11:09:17",43.23,-132.04
Toccoa,53.6,47,1,4.61,34.5773,-83.3324,us,"Sun, 07 Feb 2021 14:13:48",34.59,-83.45
Mizdah,66.0,26,87,12.8,31.4451,12.9801,ly,"Sun, 07 Feb 2021 21:13:48",29.56,13.69
Lerwick,33.8,60,75,6.91,60.1545,-1.1494,gb,"Sun, 07 Feb 2021 19:09:08",60.0,1.65
Punta Arenas,69.8,23,0,14.97,-53.15,-70.9167,cl,"Sun, 07 Feb 2021 16:12:30",-85.24,-119.92
Belle Fourche,3.0,77,90,6.91,44.6714,-103.8522,us,"Sun, 07 Feb 2021 12:13:49",45.5,-104.57
Bengkulu,75.7,85,100,6.53,-3.8004,102.2655,id,"Mon, 08 Feb 2021 02:13:49",-11.48,95.91
Lebu,63.72,75,11,8.66,-37.6167,-73.65,cl,"Sun, 07 Feb 2021 16:13:49",-36.91,-104.27
Iqaluit,26.6,68,75,19.57,63.7506,-68.5145,ca,"Sun, 07 Feb 2021 14:05:19",57.75,-70.31
Carhuamayo,50.0,75,100,5.48,-10.9167,-76.0333,pe,"Sun, 07 Feb 2021 14:13:49",-10.9,-75.84
Rovaniemi,12.2,92,0,11.5,66.5,25.7167,fi,"Sun, 07 Feb 2021 21:13:49",66.3,26.08
Kyshtovka,7.88,92,100,17.36,56.555,76.6271,ru,"Mon, 08 Feb 2021 02:13:50",57.4,76.42
Chennai,73.4,83,99,4.61,13.0878,80.2785,in,"Mon, 08 Feb 2021 00:43:50",12.65,81.19
Cabra,48.0,77,91,10.04,37.4725,-4.4421,ph,"Sun, 07 Feb 2021 20:13:50",13.98,118.75
Isangel,77.54,79,9,5.75,-19.55,169.2667,vu,"Mon, 08 Feb 2021 06:05:37",-19.49,175.8
Vodnyy,-23.3,85,100,10.13,63.5046,53.4095,ru,"Sun, 07 Feb 2021 22:13:50",63.65,53.19
Novo Aripuanã,83.75,84,99,1.88,-5.1206,-60.3797,br,"Sun, 07 Feb 2021 15:13:50",-5.11,-59.93
Sinnamary,78.62,85,100,14.12,5.3833,-52.95,gf,"Sun, 07 Feb 2021 16:13:50",10.7,-49.45
Port Alfred,66.0,95,100,8.48,-33.5906,26.891,za,"Sun, 07 Feb 2021 21:13:50",-60.35,42.09
Saint-François,39.99,87,75,3.44,46.4154,3.9054,gp,"Sun, 07 Feb 2021 20:08:43",17.23,-57.58
Ati,72.97,18,0,8.41,13.2154,18.3353,td,"Sun, 07 Feb 2021 20:13:51",13.78,18.44
Mbekenyera,73.24,96,63,4.99,-10.0,38.9833,tz,"Sun, 07 Feb 2021 22:13:51",-9.45,39.1
Kaitangata,56.59,86,100,2.75,-46.2817,169.8464,nz,"Mon, 08 Feb 2021 08:13:51",-56.93,176.66
Cidreira,75.87,62,0,10.27,-30.1811,-50.2056,br,"Sun, 07 Feb 2021 16:04:54",-59.84,-19.38
Alofi,78.8,94,100,5.75,-19.0595,-169.9187,nu,"Sun, 07 Feb 2021 07:59:33",-17.86,-166.65
Eyl,75.78,79,0,18.54,7.9803,49.8164,so,"Sun, 07 Feb 2021 22:13:51",5.29,55.39
Tiksi,-28.01,84,24,3.91,71.6872,128.8694,ru,"Mon, 08 Feb 2021 04:06:04",71.63,127.25
Hobart,53.6,58,40,11.5,-42.8794,147.3294,au,"Mon, 08 Feb 2021 06:13:52",-64.74,153.75
Venado Tuerto,91.0,52,0,4.0,-33.7456,-61.9688,ar,"Sun, 07 Feb 2021 16:13:52",-33.24,-62.32
Ancud,82.4,34,0,8.05,-41.8697,-73.8203,cl,"Sun, 07 Feb 2021 16:13:52",-41.0,-87.25
Biltine,72.45,18,0,10.36,14.5333,20.9167,td,"Sun, 07 Feb 2021 20:05:12",14.78,20.29
Tuatapere,57.31,72,100,5.64,-46.1333,167.6833,nz,"Mon, 08 Feb 2021 08:06:37",-54.98,157.08
Pochutla,84.99,69,75,9.22,15.7432,-96.4661,mx,"Sun, 07 Feb 2021 13:13:52",6.17,-97.23
Pisco,73.4,83,0,9.22,-13.7,-76.2167,pe,"Sun, 07 Feb 2021 14:09:23",-22.26,-87.15
Cayenne,82.4,78,90,18.41,4.9333,-52.3333,gf,"Sun, 07 Feb 2021 16:13:53",13.56,-45.37
Saldanha,64.4,68,0,17.27,-33.0117,17.9442,za,"Sun, 07 Feb 2021 21:13:53",-31.63,15.9
George Town,80.6,83,20,4.03,5.4112,100.3354,sh,"Mon, 08 Feb 2021 03:10:09",-8.97,-14.47
Beringovskiy,-1.44,89,100,14.85,63.05,179.3167,ru,"Mon, 08 Feb 2021 07:13:53",50.95,179.96
Pasinler,23.0,93,0,2.3,39.9803,41.6764,tr,"Sun, 07 Feb 2021 22:13:53",39.66,41.95
Nome,-6.0,77,1,5.82,64.5011,-165.4064,us,"Sun, 07 Feb 2021 10:05:21",69.18,-164.01
Bethel,28.99,86,90,4.61,41.3712,-73.414,us,"Sun, 07 Feb 2021 14:13:54",46.53,-167.61
Castro,76.24,47,0,3.47,-24.7911,-50.0119,cl,"Sun, 07 Feb 2021 16:13:54",-44.69,-98.0
Matara,75.47,87,7,5.19,5.9485,80.5353,lk,"Mon, 08 Feb 2021 00:43:54",0.73,80.7
Yarmouth,34.0,93,90,10.36,41.7057,-70.2286,ca,"Sun, 07 Feb 2021 14:13:54",41.42,-67.17
Chui,75.25,62,1,9.93,-33.6971,-53.4616,uy,"Sun, 07 Feb 2021 16:13:54",-60.76,-26.96
Tasiilaq,23.0,54,0,4.61,65.6145,-37.6368,gl,"Sun, 07 Feb 2021 16:13:55",53.62,-32.07
Mwinilunga,65.34,96,100,4.45,-11.7358,24.4293,zm,"Sun, 07 Feb 2021 21:05:39",-11.89,25.11
Tessalit,68.67,23,100,11.34,20.1986,1.0114,ml,"Sun, 07 Feb 2021 19:13:55",20.41,0.37
Tautira,84.2,61,75,4.61,-17.7333,-149.15,pf,"Sun, 07 Feb 2021 09:05:07",-18.09,-148.42
Wilmington,48.99,71,75,14.97,34.2257,-77.9447,us,"Sun, 07 Feb 2021 14:13:32",30.81,-75.5
Dourbali,77.86,16,62,8.97,11.8091,15.8632,td,"Sun, 07 Feb 2021 20:13:55",12.17,15.76
Kavaratti,80.94,69,46,8.66,10.5669,72.642,in,"Mon, 08 Feb 2021 00:35:26",8.16,63.54
Esperance,62.6,88,75,11.5,-33.8667,121.9,au,"Mon, 08 Feb 2021 03:03:59",-35.88,124.59
Constitución,66.72,67,3,8.59,-35.3333,-72.4167,cl,"Sun, 07 Feb 2021 16:13:56",-32.24,-77.91
Dikson,-32.1,85,59,12.75,73.5069,80.5464,ru,"Mon, 08 Feb 2021 02:13:44",72.21,77.95
Rādhanpur,61.25,32,0,5.95,23.8333,71.6,in,"Mon, 08 Feb 2021 00:43:56",24.02,71.64
Qaanaaq,12.2,86,74,5.61,77.484,-69.3632,gl,"Sun, 07 Feb 2021 15:13:56",78.77,-72.0
Tuktoyaktuk,-25.6,75,75,19.57,69.4541,-133.0374,ca,"Sun, 07 Feb 2021 12:13:56",81.76,-120.76
Vestmannaeyjar,35.6,87,40,26.46,63.4427,-20.2734,is,"Sun, 07 Feb 2021 19:05:28",55.83,-22.07
Linxia Chengguanzhen,30.47,75,0,1.7,35.6003,103.2064,cn,"Mon, 08 Feb 2021 03:13:57",35.28,103.71
Mastic Beach,32.0,100,100,4.0,40.7668,-72.8521,us,"Sun, 07 Feb 2021 14:13:57",40.16,-72.03
Hue,73.4,83,75,5.75,16.4667,107.6,vn,"Mon, 08 Feb 2021 02:13:03",16.64,107.13
New Norfolk,53.6,58,40,11.5,-42.7826,147.0587,au,"Mon, 08 Feb 2021 06:13:57",-48.61,139.79
Rapid Valley,3.0,71,90,9.22,44.0625,-103.1463,us,"Sun, 07 Feb 2021 12:13:57",43.76,-102.61
Dogbo,83.68,68,100,9.82,6.8167,1.7833,bj,"Sun, 07 Feb 2021 20:13:57",6.82,1.97
Villazón,64.81,46,70,12.41,-22.0866,-65.5942,bo,"Sun, 07 Feb 2021 15:13:58",-22.3,-66.72
Muisne,84.2,84,75,6.91,0.6,-80.0333,ec,"Sun, 07 Feb 2021 14:13:58",3.31,-82.74
Yangambi,72.73,41,88,1.39,0.8102,24.4336,cd,"Sun, 07 Feb 2021 21:09:21",-0.47,23.9
Batu,77.0,94,20,6.91,-7.87,112.5283,id,"Mon, 08 Feb 2021 02:13:58",-7.8,112.55
Whitianga,63.0,90,17,5.14,-36.8333,175.7,nz,"Mon, 08 Feb 2021 08:13:58",-34.96,177.41
Shimoda,37.99,55,0,21.52,34.6667,138.95,jp,"Mon, 08 Feb 2021 04:13:58",26.96,141.65
Bismarck,-5.8,59,90,6.91,46.8083,-100.7837,us,"Sun, 07 Feb 2021 13:13:58",47.61,-100.18
Henties Bay,64.99,86,77,3.0,-22.116,14.2845,na,"Sun, 07 Feb 2021 21:13:59",-22.89,6.15
Avarua,82.4,78,40,11.5,-21.2078,-159.775,ck,"Sun, 07 Feb 2021 09:13:59",-54.57,-164.18
Longyearbyen,15.8,67,75,21.85,78.2186,15.6401,sj,"Sun, 07 Feb 2021 20:13:59",88.67,14.25
Don Luan,72.64,88,3,1.92,11.5333,106.9167,vn,"Mon, 08 Feb 2021 02:13:59",11.99,106.5
Berlevåg,24.8,74,75,23.02,70.8578,29.0864,no,"Sun, 07 Feb 2021 20:14:00",83.14,32.13
Bagdarin,-6.23,86,100,0.89,54.4333,113.6,ru,"Mon, 08 Feb 2021 03:13:20",54.93,114.61
Awjilah,67.78,25,99,14.18,29.1081,21.2869,ly,"Sun, 07 Feb 2021 21:14:00",24.75,19.75
Torbay,33.01,55,20,27.63,47.6666,-52.7314,ca,"Sun, 07 Feb 2021 15:33:47",35.3,-46.37
Evensk,18.18,84,100,33.38,61.95,159.2333,ru,"Mon, 08 Feb 2021 06:07:34",61.25,158.76
Lučani,53.6,35,0,6.91,43.8608,20.1381,rs,"Sun, 07 Feb 2021 20:14:00",44.0,20.1
Ust'-Koksa,19.31,89,48,2.98,50.2696,85.6108,ru,"Mon, 08 Feb 2021 02:08:13",49.54,85.58
Greece,26.01,58,75,16.11,43.2098,-77.6931,us,"Sun, 07 Feb 2021 14:14:01",43.36,-77.71
Tarancón,44.01,9,100,41.0,40.0085,-3.0073,es,"Sun, 07 Feb 2021 20:14:01",40.19,-2.89
Meulaboh,77.4,85,79,4.18,4.1363,96.1285,id,"Mon, 08 Feb 2021 02:13:11",-3.31,89.44
Nabire,76.1,79,69,3.29,-3.3667,135.4833,id,"Mon, 08 Feb 2021 04:14:01",-5.02,137.55
Namatanai,80.15,80,100,4.63,-3.6667,152.4333,pg,"Mon, 08 Feb 2021 05:14:01",-1.26,154.41
Mbandaka,79.09,61,3,2.57,0.0487,18.2603,cd,"Sun, 07 Feb 2021 20:14:02",0.37,19.49
Thio,69.8,100,0,0.72,-21.6167,166.2167,nc,"Mon, 08 Feb 2021 06:14:02",-21.56,166.09
Caravelas,79.97,85,100,10.13,-17.7125,-39.2481,br,"Sun, 07 Feb 2021 16:02:39",-21.94,-24.53
Araouane,67.98,23,0,8.75,18.9048,-3.5265,ml,"Sun, 07 Feb 2021 19:14:02",19.42,-3.67
Dukat,3.61,87,100,13.73,62.55,155.55,ru,"Mon, 08 Feb 2021 06:14:02",63.33,155.22
Agnibilékrou,83.75,57,24,3.85,7.1344,-3.2047,ci,"Sun, 07 Feb 2021 19:14:02",7.28,-3.21
Aksu,30.65,82,85,1.74,41.1231,80.2644,cn,"Mon, 08 Feb 2021 03:09:34",38.63,81.95
Whyalla,62.6,77,0,9.22,-33.0333,137.5833,au,"Mon, 08 Feb 2021 05:44:03",-33.53,136.94
Kondoa,64.18,94,100,3.4,-4.9,35.7833,tz,"Sun, 07 Feb 2021 22:14:03",-4.96,36.03
Faanui,80.96,76,5,11.86,-16.4833,-151.75,pf,"Sun, 07 Feb 2021 09:13:56",-9.98,-159.99
Malko Tarnovo,48.2,100,90,12.66,41.9833,27.5333,bg,"Sun, 07 Feb 2021 21:14:03",41.92,27.44
Dingle,75.52,91,100,9.28,10.9995,122.6711,ie,"Mon, 08 Feb 2021 03:14:03",51.48,-17.2
Óbidos,90.1,49,100,4.79,-1.9175,-55.5181,br,"Sun, 07 Feb 2021 16:14:03",-1.83,-55.55
Bone,21.0,89,100,7.0,51.9669,12.1396,id,"Sun, 07 Feb 2021 20:14:04",-4.16,121.06
Mahabalipuram,73.4,83,99,4.61,12.6264,80.1722,in,"Mon, 08 Feb 2021 00:42:13",11.5,82.63
Gobabis,74.37,61,6,14.5,-22.45,18.9667,na,"Sun, 07 Feb 2021 21:14:04",-22.44,20.2
Río Gallegos,69.8,37,0,19.57,-51.6226,-69.2181,ar,"Sun, 07 Feb 2021 16:14:04",-51.32,-66.83
Lagoa,57.76,74,100,20.76,39.05,-27.9833,pt,"Sun, 07 Feb 2021 18:14:04",40.97,-27.16
São José da Coroa Grande,82.27,72,60,12.46,-8.8978,-35.1478,br,"Sun, 07 Feb 2021 16:14:05",-14.08,-25.51
Manado,75.2,100,40,2.3,1.487,124.8455,id,"Mon, 08 Feb 2021 03:13:42",2.94,123.15
Karratha,78.24,71,0,9.57,-20.7377,116.8463,au,"Mon, 08 Feb 2021 03:14:05",-20.57,116.02
Kibaya,62.13,99,100,2.35,-5.3,36.5667,tz,"Sun, 07 Feb 2021 22:14:05",-5.5,36.34
St. George's,84.2,65,20,23.02,12.0564,-61.7485,gf,"Sun, 07 Feb 2021 15:14:05",4.11,-51.63
East Stroudsburg,34.0,85,100,1.01,40.9995,-75.1813,us,"Sun, 07 Feb 2021 14:14:06",41.04,-75.1
Waipawa,64.4,82,75,17.27,-41.4122,175.5153,nz,"Mon, 08 Feb 2021 08:14:06",-42.43,175.58
Camopi,73.8,97,100,4.27,3.1655,-52.3158,gf,"Sun, 07 Feb 2021 16:14:06",1.51,-54.22
Muromtsevo,6.69,92,100,15.03,56.3724,75.2418,ru,"Mon, 08 Feb 2021 01:14:06",56.64,75.39
Petropavlovsk-Kamchatskiy,19.4,93,100,6.71,53.0452,158.6483,ru,"Mon, 08 Feb 2021 07:14:07",50.4,162.21
Shirokiy,-18.92,87,0,8.48,49.758,129.523,ru,"Mon, 08 Feb 2021 04:14:07",63.73,148.41
San Felipe,84.33,59,100,6.82,10.3399,-68.7425,mx,"Sun, 07 Feb 2021 15:14:07",31.32,-114.94
Mahébourg,80.6,78,75,10.36,-20.4081,57.7,mu,"Sun, 07 Feb 2021 23:06:31",-48.0,78.99
Fortuna,53.01,87,90,4.61,40.5982,-124.1573,us,"Sun, 07 Feb 2021 11:14:07",35.9,-141.89
Lubao,78.8,78,40,2.3,14.9167,120.55,cd,"Mon, 08 Feb 2021 03:14:08",-4.48,25.26
Clovis,59.0,58,1,1.59,36.8252,-119.7029,us,"Sun, 07 Feb 2021 11:12:22",34.57,-103.24
Cabo San Lucas,75.0,68,40,6.91,22.8909,-109.9124,mx,"Sun, 07 Feb 2021 12:09:14",9.53,-118.36
Cherskiy,-4.32,70,12,1.23,68.75,161.3,ru,"Mon, 08 Feb 2021 06:14:08",81.62,160.83
Bambous Virieux,80.6,78,75,10.36,-20.3428,57.7575,mu,"Sun, 07 Feb 2021 23:14:08",-24.48,62.71
Severo-Kuril'sk,19.06,89,95,14.41,50.6789,156.125,ru,"Mon, 08 Feb 2021 06:05:30",37.54,161.49
Tarumovka,27.82,97,100,7.74,44.0761,46.5361,ru,"Sun, 07 Feb 2021 22:14:09",44.18,46.34
"Leibnitz, Styria",46.99,86,100,5.59,46.7816,15.5384,at,"Sun, 07 Feb 2021 20:14:09",46.83,15.5
Bereda,46.99,98,100,14.0,43.2686,-7.5406,so,"Sun, 07 Feb 2021 20:14:09",14.46,51.09
Kalangala,75.2,73,97,4.59,-0.3089,32.225,ug,"Sun, 07 Feb 2021 22:14:09",-0.66,33.18
Coyhaique,77.0,29,0,5.75,-45.5752,-72.0662,cl,"Sun, 07 Feb 2021 16:14:09",-50.07,-82.52
Visnes,25.0,58,0,8.05,59.3556,5.2242,no,"Sun, 07 Feb 2021 20:14:09",58.05,3.24
Nyurba,-3.68,88,100,7.25,63.2842,118.3319,ru,"Mon, 08 Feb 2021 04:14:10",67.18,117.62
Dera Bugti,61.12,29,0,2.98,29.0307,69.151,pk,"Mon, 08 Feb 2021 00:14:10",29.32,69.38
Nizwá,56.93,64,0,3.76,22.9333,57.5333,om,"Sun, 07 Feb 2021 23:14:10",20.96,56.96
Jumla,35.47,58,0,6.2,29.2747,82.1838,np,"Mon, 08 Feb 2021 00:59:10",31.28,83.83
Esperanza,89.01,49,0,11.01,19.5847,-70.9849,ph,"Sun, 07 Feb 2021 15:14:10",10.72,124.46
São Lourenço da Mata,82.4,65,40,9.22,-8.0022,-35.0183,br,"Sun, 07 Feb 2021 16:14:10",-8.04,-35.08
Oyama,48.0,59,20,1.14,36.3,139.8,jp,"Mon, 08 Feb 2021 04:14:11",30.62,138.94
Trairi,86.34,60,2,13.78,-3.2778,-39.2689,br,"Sun, 07 Feb 2021 16:14:11",2.97,-35.87
Emerald,78.8,89,40,4.61,-23.5333,148.1667,au,"Mon, 08 Feb 2021 05:07:55",-24.34,143.49
Labuhan,78.93,84,100,10.87,-6.8844,112.2051,id,"Mon, 08 Feb 2021 02:07:59",-12.93,98.81
Verkhnyaya Salda,-2.52,91,100,11.32,58.0456,60.5533,ru,"Mon, 08 Feb 2021 00:14:11",58.17,60.62
Inuvik,-16.6,76,100,11.5,68.3499,-133.7218,ca,"Sun, 07 Feb 2021 12:14:11",67.99,-132.36
Hambantota,77.0,94,0,8.05,6.1241,81.1185,lk,"Mon, 08 Feb 2021 00:43:56",-5.94,86.93
Mehamn,24.8,80,75,31.07,71.0357,27.8492,no,"Sun, 07 Feb 2021 20:14:12",77.93,26.8
Aleksinac,46.4,66,0,6.91,43.5417,21.7078,rs,"Sun, 07 Feb 2021 20:14:12",43.79,21.69
Nynäshamn,21.0,91,31,1.01,58.9034,17.9479,se,"Sun, 07 Feb 2021 20:14:12",58.28,17.85
Geraldton,69.8,78,40,10.36,-28.7667,114.6,ca,"Mon, 08 Feb 2021 03:14:12",55.54,-88.04
Kurchum,22.46,93,99,4.74,48.5722,83.6542,kz,"Mon, 08 Feb 2021 01:14:13",47.91,83.54
Luwuk,78.69,74,100,2.95,-0.9516,122.7875,id,"Mon, 08 Feb 2021 03:14:13",-1.9,124.32
Thinadhoo,81.97,74,82,10.25,0.5333,72.9333,mv,"Mon, 08 Feb 2021 00:14:13",-0.89,64.2
Ostrovnoy,6.89,93,100,5.91,68.0531,39.5131,ru,"Sun, 07 Feb 2021 22:14:13",67.75,40.55
Shouguang,30.99,63,0,2.3,36.88,118.7375,cn,"Mon, 08 Feb 2021 03:14:13",37.29,118.94
Bayshore Gardens,75.99,68,1,11.5,27.4253,-82.5904,us,"Sun, 07 Feb 2021 14:14:14",26.16,-85.18
Blind River,17.6,52,1,18.41,46.1834,-82.9582,ca,"Sun, 07 Feb 2021 14:14:14",46.05,-82.84
Carballo,50.0,95,100,5.99,43.213,-8.691,es,"Sun, 07 Feb 2021 20:14:14",45.3,-10.97
Château-Gontier,41.0,75,90,10.36,47.8333,-0.7,fr,"Sun, 07 Feb 2021 20:14:14",47.87,-0.65
Verkhnyaya Khava,5.0,72,0,11.18,51.8404,39.9413,ru,"Sun, 07 Feb 2021 22:14:14",52.05,40.13
Princeton,84.99,61,40,16.11,25.5384,-80.4089,ca,"Sun, 07 Feb 2021 14:12:27",49.3,-120.12
Port Lincoln,59.54,78,90,16.28,-34.7333,135.8667,au,"Mon, 08 Feb 2021 05:37:01",-38.98,134.43
Barcelos,51.8,100,90,21.85,41.5388,-8.6151,br,"Sun, 07 Feb 2021 19:14:15",1.34,-62.67
College,-14.01,76,20,4.61,64.8569,-147.8028,us,"Sun, 07 Feb 2021 10:05:14",67.19,-148.76
Great Bend,15.8,79,90,9.22,38.3645,-98.7648,us,"Sun, 07 Feb 2021 13:14:15",37.7,-98.88
Halmstad,21.2,79,53,11.5,56.6745,12.8568,se,"Sun, 07 Feb 2021 20:10:31",56.56,12.83
Cimarron Hills,48.2,11,1,24.16,38.8586,-104.6989,us,"Sun, 07 Feb 2021 12:14:16",38.8,-103.88
Antofagasta,75.0,60,20,12.66,-23.65,-70.4,cl,"Sun, 07 Feb 2021 16:09:40",-24.08,-70.48
Vanimo,77.0,86,100,2.51,-2.6741,141.3028,pg,"Mon, 08 Feb 2021 05:04:41",4.56,142.74
Naze,57.65,65,0,9.28,28.3667,129.4833,jp,"Mon, 08 Feb 2021 04:04:29",20.45,138.48
Taoudenni,65.97,26,0,8.97,22.6783,-3.9836,ml,"Sun, 07 Feb 2021 19:14:16",23.66,-4.67
Darłowo,19.0,60,85,20.78,54.421,16.4107,pl,"Sun, 07 Feb 2021 20:14:17",54.26,16.51
Alpena,12.0,48,75,14.97,45.0617,-83.4327,us,"Sun, 07 Feb 2021 14:14:17",44.88,-82.79
Challans,42.8,75,90,3.44,46.8436,-1.8749,fr,"Sun, 07 Feb 2021 20:14:17",45.59,-2.95
Manokwari,78.51,79,100,2.35,-0.8667,134.0833,id,"Mon, 08 Feb 2021 04:05:09",1.68,134.66
Banfora,87.69,14,0,3.65,10.6333,-4.7667,bf,"Sun, 07 Feb 2021 19:14:17",10.2,-4.99
Kopavogur,35.6,51,0,8.05,64.1123,-21.913,is,"Sun, 07 Feb 2021 19:14:18",64.18,-21.63
Road Town,84.2,61,40,11.5,18.4167,-64.6167,vg,"Sun, 07 Feb 2021 15:09:23",20.88,-64.56
Perth,66.2,94,75,12.66,-31.9333,115.8333,au,"Mon, 08 Feb 2021 03:12:22",-30.63,115.64
Lovozero,12.02,95,100,11.52,68.005,35.0117,ru,"Sun, 07 Feb 2021 22:14:18",67.41,36.29
Jaraguá,68.0,100,75,5.75,-15.7569,-49.3344,br,"Sun, 07 Feb 2021 16:14:18",-15.87,-49.32
Hammerfest,23.0,86,75,16.11,70.6634,23.6821,no,"Sun, 07 Feb 2021 20:14:18",74.82,21.76
Solone,12.2,73,40,8.95,48.2081,34.8721,ua,"Sun, 07 Feb 2021 21:14:18",48.36,34.72
São Filipe,71.11,70,100,10.29,14.8961,-24.4956,cv,"Sun, 07 Feb 2021 18:14:19",10.04,-35.65
Kieta,79.88,78,36,4.63,-6.2167,155.6333,pg,"Mon, 08 Feb 2021 06:14:19",-1.83,159.75
Dzilam González,85.89,59,48,3.6,21.2833,-88.9333,mx,"Sun, 07 Feb 2021 13:14:19",23.71,-88.62
Lompoc,64.0,51,1,5.26,34.6391,-120.4579,us,"Sun, 07 Feb 2021 11:13:08",23.7,-129.3
Gogrial,70.84,21,89,4.79,8.5332,28.1004,sd,"Sun, 07 Feb 2021 21:14:19",8.29,27.76
Gazli,54.55,54,100,6.62,40.1333,63.45,uz,"Mon, 08 Feb 2021 00:14:19",40.85,63.83
Gao,80.04,16,83,7.78,16.6362,1.637,ml,"Sun, 07 Feb 2021 19:14:20",17.74,-0.68
San Patricio,73.4,40,1,11.5,28.017,-97.5169,mx,"Sun, 07 Feb 2021 13:14:20",15.45,-106.47
Valle Hermoso,77.0,46,1,11.5,25.6667,-97.8333,mx,"Sun, 07 Feb 2021 13:14:20",25.46,-97.5
Baykit,25.25,96,98,5.5,61.67,96.37,ru,"Mon, 08 Feb 2021 02:07:42",65.83,94.41
Itarema,85.98,63,0,16.08,-2.9248,-39.9167,br,"Sun, 07 Feb 2021 16:05:56",8.66,-36.22
São João da Barra,71.6,88,90,2.3,-21.6403,-41.0511,br,"Sun, 07 Feb 2021 16:13:37",-32.61,-22.34
Preston,35.6,64,75,18.41,53.7667,-2.7167,us,"Sun, 07 Feb 2021 19:14:21",42.14,-112.01
Half Moon Bay,61.0,82,1,12.66,37.4636,-122.4286,us,"Sun, 07 Feb 2021 11:14:21",32.38,-134.74
Tongchuanshi,38.21,64,6,4.09,35.0806,109.0897,cn,"Mon, 08 Feb 2021 03:14:21",35.08,108.17
Arrondissement de Nogent-le-Rotrou,35.6,75,88,10.36,48.3333,1.0,fr,"Sun, 07 Feb 2021 20:14:22",48.37,0.92
Laas,39.99,100,90,4.61,46.6166,10.7002,cn,"Sun, 07 Feb 2021 20:08:54",31.28,87.66
Tongliao,0.01,89,0,8.08,43.6125,122.2653,cn,"Mon, 08 Feb 2021 03:14:22",43.08,122.76
Kenai,8.6,85,1,3.44,60.5544,-151.2583,us,"Sun, 07 Feb 2021 10:14:22",64.25,-155.49
Adrar,63.12,29,0,8.61,20.5022,-10.0711,dz,"Sun, 07 Feb 2021 19:14:22",26.74,-2.47
Nizhniy Baskunchak,16.09,75,0,15.1,48.2198,46.8311,ru,"Sun, 07 Feb 2021 23:14:22",48.41,46.92
Mayna,-5.6,92,100,12.41,54.1135,47.6231,ru,"Sun, 07 Feb 2021 23:14:23",52.49,91.93
Ardakān,48.2,81,40,6.91,32.31,54.0175,ir,"Sun, 07 Feb 2021 22:44:23",33.3,55.1
Oddur,78.03,37,0,8.99,4.1213,43.8894,so,"Sun, 07 Feb 2021 22:14:23",6.31,43.63
Grindavik,33.8,64,40,12.66,63.8424,-22.4338,is,"Sun, 07 Feb 2021 19:08:30",54.51,-23.99
Russell,53.6,50,1,5.75,32.3502,-85.1999,nz,"Sun, 07 Feb 2021 13:14:23",-33.58,175.88
Kamenka,-5.82,91,1,9.44,51.3223,42.7678,ru,"Sun, 07 Feb 2021 22:14:23",69.72,43.46
Saint George,54.0,29,1,1.34,37.1041,-113.5841,bm,"Sun, 07 Feb 2021 12:12:53",35.57,-65.51
Ribeira Grande,60.8,72,40,16.11,38.5167,-28.7,pt,"Sun, 07 Feb 2021 18:14:24",40.16,-30.71
Arraial do Cabo,73.4,88,75,3.44,-22.9661,-42.0278,br,"Sun, 07 Feb 2021 16:14:24",-57.34,-17.24
Maumere,79.61,76,100,1.36,-8.6199,122.2111,id,"Mon, 08 Feb 2021 03:06:18",-9.67,122.32
Verkhnyaya Inta,-13.9,89,100,7.67,65.9811,60.3094,ru,"Sun, 07 Feb 2021 22:14:24",64.39,62.18
Aasiaat,19.2,86,0,19.3,68.7098,-52.8699,gl,"Sun, 07 Feb 2021 16:14:24",71.42,-53.02
Novoil'insk,-0.4,88,81,2.24,51.6829,108.7143,ru,"Mon, 08 Feb 2021 03:14:25",51.55,108.75
Kondinskoye,-1.48,92,100,13.78,59.6481,67.41,ru,"Mon, 08 Feb 2021 00:14:25",60.33,67.08
Lufilufi,78.8,94,75,19.57,-13.8745,-171.5986,ws,"Mon, 08 Feb 2021 09:14:25",-6.58,-167.69
Strezhevoy,17.6,79,75,17.9,60.7333,77.5889,ru,"Mon, 08 Feb 2021 02:14:25",62.18,79.88
Vila,46.0,96,100,15.99,42.0304,-8.1588,vu,"Sun, 07 Feb 2021 19:14:25",-15.17,172.4
Senneterre,14.0,67,90,8.05,48.3835,-77.2328,ca,"Sun, 07 Feb 2021 14:14:26",48.59,-75.87
Kuandian,5.99,90,0,3.24,40.7286,124.7847,cn,"Mon, 08 Feb 2021 03:13:25",40.47,124.7
Hollister,62.01,54,1,1.92,36.8525,-121.4016,us,"Sun, 07 Feb 2021 11:14:26",36.8,-121.23
Måløy,25.0,58,0,8.05,61.9353,5.1136,no,"Sun, 07 Feb 2021 20:14:26",62.83,2.23
Beauceville,26.6,54,100,8.05,46.2179,-70.7787,ca,"Sun, 07 Feb 2021 14:14:27",46.17,-70.76
Talnakh,-21.84,73,4,3.53,69.4865,88.3972,ru,"Mon, 08 Feb 2021 02:14:27",74.36,93.68
Bud,14.0,48,1,7.72,39.447,-86.1758,no,"Sun, 07 Feb 2021 14:14:27",72.33,2.47
West Melbourne,79.0,73,90,10.36,28.0717,-80.6534,us,"Sun, 07 Feb 2021 14:07:38",27.96,-80.73
Omboué,79.02,85,100,3.36,-1.5746,9.2618,ga,"Sun, 07 Feb 2021 20:05:43",-4.99,3.16
Sakakah,55.4,62,0,6.91,29.9697,40.2064,sa,"Sun, 07 Feb 2021 22:05:40",28.13,40.27
Dhanera,62.42,29,0,6.08,24.5167,72.0167,in,"Mon, 08 Feb 2021 00:44:27",24.47,71.83
Ternate,80.87,79,92,4.05,0.8,127.4,id,"Mon, 08 Feb 2021 04:14:28",1.46,126.55
Iporá,77.97,85,45,6.22,-16.4419,-51.1178,br,"Sun, 07 Feb 2021 16:14:28",-15.98,-51.22
Praia da Vitória,59.0,72,40,16.35,38.7333,-27.0667,pt,"Sun, 07 Feb 2021 18:14:28",50.64,-22.83
Corinth,57.99,50,74,1.01,37.9407,22.9573,us,"Sun, 07 Feb 2021 21:14:28",35.06,-88.63
Amapá,79.3,94,100,2.48,1.0,-52.0,br,"Sun, 07 Feb 2021 16:13:26",3.6,-47.35
Balkanabat,49.77,71,100,10.16,39.5108,54.3671,tm,"Mon, 08 Feb 2021 00:14:28",40.14,53.87
Parrita,86.0,44,20,19.57,9.5201,-84.3225,cr,"Sun, 07 Feb 2021 13:14:28",7.59,-85.76
Salinópolis,81.19,83,100,10.0,-0.6136,-47.3561,br,"Sun, 07 Feb 2021 16:14:29",7.95,-43.14
Shiyan,43.79,58,100,6.98,32.6475,110.7781,cn,"Mon, 08 Feb 2021 03:09:00",32.1,110.71
Kruisfontein,64.99,93,97,1.99,-34.0033,24.7314,za,"Sun, 07 Feb 2021 21:14:29",-72.94,26.83
Yeppoon,78.8,83,31,10.36,-23.1333,150.7333,au,"Mon, 08 Feb 2021 05:14:29",-21.89,150.45
Cestas,46.99,93,75,3.44,44.7435,-0.6791,fr,"Sun, 07 Feb 2021 20:14:30",44.49,-0.64
Ayagoz,30.34,98,100,12.26,47.9714,80.4392,kz,"Mon, 08 Feb 2021 01:14:30",48.01,81.19
Aitape,77.4,83,100,4.18,-3.1374,142.3475,pg,"Mon, 08 Feb 2021 05:14:30",-0.88,143.73
Homer,23.0,86,1,5.1,59.6425,-151.5483,us,"Sun, 07 Feb 2021 10:14:30",58.74,-150.61
Nouadhibou,66.2,68,0,16.11,20.931,-17.0347,mr,"Sun, 07 Feb 2021 19:14:30",20.18,-20.44
Orange,66.99,40,0,3.0,33.7,-117.7675,au,"Sun, 07 Feb 2021 11:14:30",-33.24,148.99
Gold Coast,75.99,83,90,11.5,-28.0,153.4333,au,"Mon, 08 Feb 2021 05:03:44",-27.75,154.06
Antalaha,77.81,83,98,2.35,-14.9003,50.2788,mg,"Sun, 07 Feb 2021 22:14:31",-13.75,55.75
Anchorage,8.6,78,90,4.61,61.2181,-149.9003,us,"Sun, 07 Feb 2021 10:00:24",63.73,-151.79
Aklavik,-13.0,64,90,13.8,68.2191,-135.0107,ca,"Sun, 07 Feb 2021 12:05:29",74.18,-137.49
Sun Valley,48.0,36,20,1.32,39.5963,-119.776,us,"Sun, 07 Feb 2021 11:14:31",39.85,-119.72
Korampallam,75.88,68,0,13.78,8.7667,78.1,in,"Mon, 08 Feb 2021 00:44:31",8.72,78.46
Fairbanks,-14.01,76,1,2.84,64.8378,-147.7164,us,"Sun, 07 Feb 2021 10:05:02",64.21,-147.84
Lavrentiya,-11.07,84,0,7.07,65.5833,-171.0,ru,"Mon, 08 Feb 2021 07:02:47",66.35,-168.58
Sucha Beskidzka,21.0,86,90,23.02,49.7419,19.5943,pl,"Sun, 07 Feb 2021 20:14:32",49.86,19.62
Puerto Cabezas,82.4,89,75,4.61,14.0351,-83.3888,ni,"Sun, 07 Feb 2021 13:14:32",13.97,-82.1
Tawang Town,30.11,82,0,6.71,27.5833,91.8667,in,"Mon, 08 Feb 2021 00:44:32",28.28,92.05
Pacific Grove,57.0,76,1,4.61,36.6177,-121.9166,us,"Sun, 07 Feb 2021 11:13:20",31.29,-131.4
Norman Wells,-27.4,75,75,2.3,65.282,-126.8329,ca,"Sun, 07 Feb 2021 12:14:32",68.9,-125.11
Kavieng,82.8,74,85,7.38,-2.5744,150.7967,pg,"Mon, 08 Feb 2021 05:14:33",13.94,153.34
Shubarkuduk,3.15,93,100,11.63,49.1447,56.4872,kz,"Mon, 08 Feb 2021 00:14:33",47.9,55.95
Atar,66.79,27,0,10.92,20.5169,-13.0499,mr,"Sun, 07 Feb 2021 19:05:57",21.87,-9.76
Harper,80.01,84,96,6.11,4.375,-7.7169,lr,"Sun, 07 Feb 2021 19:08:15",2.54,-7.77
Paramirim,79.41,70,100,4.9,-13.4425,-42.2389,br,"Sun, 07 Feb 2021 16:14:33",-13.05,-42.0
Bilma,66.81,22,100,4.59,18.6853,12.9164,ne,"Sun, 07 Feb 2021 20:14:33",21.3,14.01
Saint-Tite,25.0,63,100,3.44,46.7334,-72.5658,ca,"Sun, 07 Feb 2021 14:09:37",46.8,-72.65
Stephenville,57.2,41,1,13.8,32.2207,-98.2023,ca,"Sun, 07 Feb 2021 13:10:17",49.12,-59.18
Vila Velha,73.4,88,90,6.91,-20.3297,-40.2925,br,"Sun, 07 Feb 2021 16:13:56",-25.31,-27.41
Rantepao,67.48,88,78,2.28,-2.9701,119.8978,id,"Mon, 08 Feb 2021 03:14:34",-2.65,120.37
Quzhou,57.6,73,100,6.8,28.9594,118.8686,cn,"Mon, 08 Feb 2021 03:14:34",28.39,118.92
Salalah,73.4,68,75,5.75,17.0151,54.0924,om,"Sun, 07 Feb 2021 23:14:34",19.74,52.44
Neiafu,77.0,94,90,12.66,-18.65,-173.9833,to,"Mon, 08 Feb 2021 08:14:34",-17.99,-173.88
Avera,48.99,71,90,6.91,33.194,-82.5271,pf,"Sun, 07 Feb 2021 14:05:27",-33.21,-157.0
Bubaque,77.54,65,0,17.81,11.2833,-15.8333,gw,"Sun, 07 Feb 2021 19:07:16",4.62,-20.74
Port Said,62.6,77,0,5.75,31.2565,32.2841,eg,"Sun, 07 Feb 2021 21:09:35",31.69,32.92
Presidencia Roque Sáenz Peña,95.76,16,0,7.09,-26.7852,-60.4388,ar,"Sun, 07 Feb 2021 16:14:35",-26.03,-61.06
Arkhara,-20.24,88,88,7.29,49.4212,130.0842,ru,"Mon, 08 Feb 2021 04:14:35",49.67,130.65
Makkah al Mukarramah,72.05,36,0,6.64,21.4267,39.8261,sa,"Sun, 07 Feb 2021 22:13:08",22.59,42.09
Udachny,-25.37,84,100,6.08,66.4167,112.4,ru,"Mon, 08 Feb 2021 04:05:22",66.5,114.96
Buala,79.68,82,8,5.26,-8.145,159.5921,sb,"Mon, 08 Feb 2021 06:14:35",-2.1,163.7
Rameswaram,78.67,78,0,22.62,9.2833,79.3,in,"Mon, 08 Feb 2021 00:44:36",8.8,79.8
Mbuji-Mayi,74.07,84,100,1.59,-6.15,23.6,cd,"Sun, 07 Feb 2021 21:12:16",-6.32,23.32
Khani,44.6,93,75,3.44,41.9563,42.9566,ru,"Sun, 07 Feb 2021 23:14:36",59.93,119.85
Alice Springs,75.99,35,5,6.91,-23.7,133.8833,au,"Mon, 08 Feb 2021 04:39:28",-21.47,131.95
San Miguel de Cozumel,86.0,66,40,12.66,20.5083,-86.9458,mx,"Sun, 07 Feb 2021 14:14:36",19.96,-85.09
Pingliang,34.16,73,0,4.65,35.5392,106.6861,cn,"Mon, 08 Feb 2021 03:14:36",35.79,106.62
Jizan,77.0,69,0,4.61,17.3333,42.6667,sa,"Sun, 07 Feb 2021 22:14:37",16.32,41.61
Coacoyul,89.64,23,0,1.43,17.8058,-99.11,mx,"Sun, 07 Feb 2021 13:14:37",17.68,-101.44
Kalmunai,77.22,87,19,10.69,7.4167,81.8167,lk,"Mon, 08 Feb 2021 00:44:37",6.43,88.47
Yola,82.0,15,99,1.88,9.2,12.4833,ng,"Sun, 07 Feb 2021 20:14:37",9.12,12.51
Along,51.28,58,0,2.01,28.1667,94.7667,in,"Mon, 08 Feb 2021 00:44:37",33.86,95.53
Ayní,43.25,57,65,7.49,39.3941,68.5377,tj,"Mon, 08 Feb 2021 00:14:37",39.32,68.61
Bandarbeyla,76.05,78,12,18.61,9.4942,50.8122,so,"Sun, 07 Feb 2021 22:07:51",8.05,55.99
Okha,9.7,94,100,26.02,53.5739,142.9478,ru,"Mon, 08 Feb 2021 06:14:38",55.57,146.31
Balaipungut,75.2,94,75,5.75,1.05,101.2833,id,"Mon, 08 Feb 2021 02:14:38",0.47,101.49
Kostanay,6.8,85,0,13.42,53.1667,63.5833,kz,"Mon, 08 Feb 2021 01:14:38",53.12,64.27
Paamiut,29.37,85,20,6.06,61.994,-49.6678,gl,"Sun, 07 Feb 2021 16:14:39",63.66,-48.86
Mossendjo,71.49,97,100,2.75,-2.9506,12.7261,cg,"Sun, 07 Feb 2021 20:14:39",-2.76,13.56
Vilhena,86.0,58,75,6.91,-12.7406,-60.1458,br,"Sun, 07 Feb 2021 15:14:39",-13.49,-60.29
Saint Paul Harbor,26.6,68,1,6.31,57.79,-152.4072,us,"Sun, 07 Feb 2021 10:14:39",58.31,-156.84
Pierre,-0.4,71,90,12.66,44.3683,-100.351,us,"Sun, 07 Feb 2021 13:14:40",43.28,-101.53
Chimoré,93.45,44,64,2.04,-16.9833,-65.1333,bo,"Sun, 07 Feb 2021 15:14:40",-16.31,-64.31
Pontes e Lacerda,89.35,41,88,3.78,-15.2261,-59.3353,br,"Sun, 07 Feb 2021 15:14:40",-15.36,-58.69
Mossamedes,73.11,76,100,4.21,-15.1961,12.1522,ao,"Sun, 07 Feb 2021 20:14:40",-17.97,7.5
Maputo,81.0,78,75,6.91,-25.9653,32.5892,mz,"Sun, 07 Feb 2021 21:14:24",-26.17,33.49
Abu Dhabi,69.8,73,0,3.44,24.4667,54.3667,ae,"Sun, 07 Feb 2021 23:13:18",24.66,54.11
Ust'-Ishim,2.57,91,100,13.65,57.6935,71.1665,ru,"Mon, 08 Feb 2021 01:04:56",58.85,70.64
Gonzales,57.99,58,1,3.44,30.2385,-90.9201,us,"Sun, 07 Feb 2021 13:14:41",36.65,-121.43
Norwich,32.0,93,90,21.85,52.6278,1.2983,gb,"Sun, 07 Feb 2021 19:14:41",53.06,1.48
Sur,65.1,73,0,4.56,22.5667,59.5289,om,"Sun, 07 Feb 2021 23:14:41",19.78,62.84
Chifeng,2.21,84,0,5.3,42.2683,118.9636,cn,"Mon, 08 Feb 2021 03:14:41",44.1,119.06
Bushehr,64.4,82,0,11.5,28.9684,50.8385,ir,"Sun, 07 Feb 2021 22:44:41",29.39,50.61
Puttūr,75.2,73,19,4.61,12.7667,75.2167,in,"Mon, 08 Feb 2021 00:44:42",13.51,79.55
Bariloche,69.01,59,90,10.36,-41.1456,-71.3082,ar,"Sun, 07 Feb 2021 16:14:28",-41.02,-70.61
Sambava,78.84,80,100,1.14,-14.2667,50.1667,mg,"Sun, 07 Feb 2021 22:12:08",-12.86,53.27
Rincon,50.0,76,90,11.5,32.296,-81.2354,an,"Sun, 07 Feb 2021 14:14:42",13.28,-67.58
Sorong,78.96,86,100,7.11,-0.8833,131.25,id,"Mon, 08 Feb 2021 04:08:36",0.85,130.02
Matagami,8.6,78,90,12.66,49.7502,-77.6328,ca,"Sun, 07 Feb 2021 14:14:42",50.36,-79.07
Ganzhou,53.47,80,100,9.08,28.8184,115.4327,cn,"Mon, 08 Feb 2021 03:14:43",25.75,114.7
Flinders,66.0,83,58,1.99,-34.5833,150.8552,au,"Mon, 08 Feb 2021 06:14:43",-28.8,134.29
Iranshahr,62.6,23,0,1.74,27.2025,60.6848,ir,"Sun, 07 Feb 2021 22:44:43",26.65,59.91
Escalerillas,73.4,46,1,8.05,22.1333,-101.0667,mx,"Sun, 07 Feb 2021 13:14:44",22.09,-101.09
Saurimo,67.14,93,100,4.9,-9.6608,20.3916,ao,"Sun, 07 Feb 2021 20:14:44",-9.08,19.49
Visakhapatnam,73.4,83,51,2.3,17.69,83.2093,in,"Mon, 08 Feb 2021 00:44:44",17.17,84.08
Hasaki,33.8,80,75,2.3,35.7333,140.8333,jp,"Mon, 08 Feb 2021 04:04:45",30.87,151.71
San Cristobal,87.8,51,40,8.05,7.7669,-72.225,ec,"Sun, 07 Feb 2021 15:14:46",-2.67,-87.69
Novaya Bryan’,-4.0,77,47,1.99,51.7159,108.2691,ru,"Mon, 08 Feb 2021 03:14:47",51.59,107.93
Ballina,75.2,78,75,10.36,-28.8667,153.5667,au,"Mon, 08 Feb 2021 06:12:13",-30.08,155.83
Codrington,56.26,70,100,10.4,-38.2667,141.9667,ag,"Mon, 08 Feb 2021 06:14:47",26.53,-51.9
Prince Rupert,33.8,74,1,9.22,54.3161,-130.3201,ca,"Sun, 07 Feb 2021 11:14:47",51.91,-131.4
Carutapera,84.97,67,3,9.44,-1.195,-46.02,br,"Sun, 07 Feb 2021 16:03:41",0.74,-45.51
Huarmey,77.22,61,87,10.2,-10.0681,-78.1522,pe,"Sun, 07 Feb 2021 14:05:21",-14.99,-86.75
Usinsk,-22.04,85,100,16.35,65.9939,57.5281,ru,"Sun, 07 Feb 2021 22:14:47",69.15,57.81
Iraquara,78.3,76,100,3.62,-12.2486,-41.6194,br,"Sun, 07 Feb 2021 16:14:47",-12.24,-41.46
Beloha,76.06,86,2,8.41,-25.1667,45.05,mg,"Sun, 07 Feb 2021 22:14:48",-25.68,44.41
Hwange,71.42,85,100,1.81,-18.3693,26.5019,zw,"Sun, 07 Feb 2021 21:14:48",-18.71,27.15
Portland,46.4,71,75,3.44,45.5234,-122.6762,au,"Sun, 07 Feb 2021 11:05:25",-45.6,139.94
Kutum,58.69,30,0,8.88,14.2,24.6667,sd,"Sun, 07 Feb 2021 21:14:48",14.47,24.18
Port Hardy,37.4,93,75,8.05,50.6996,-127.4199,ca,"Sun, 07 Feb 2021 11:14:48",46.16,-133.15
Richards Bay,75.13,89,65,2.98,-28.783,32.0377,za,"Sun, 07 Feb 2021 21:14:48",-30.95,34.6
Kaoma,69.87,90,100,2.86,-14.7833,24.8,zm,"Sun, 07 Feb 2021 21:14:49",-16.02,25.17
Santa Helena,90.97,49,36,5.61,-2.2311,-45.3,co,"Sun, 07 Feb 2021 16:14:49",6.5,-73.6
Sistranda,23.0,86,20,9.22,63.7256,8.834,no,"Sun, 07 Feb 2021 20:14:49",71.92,4.35
Carauari,83.91,86,79,3.96,-4.8828,-66.8958,br,"Sun, 07 Feb 2021 15:14:49",-6.15,-67.04
Guerrero Negro,74.21,20,0,4.29,27.9769,-114.0611,mx,"Sun, 07 Feb 2021 12:14:49",25.25,-118.01
Zhangjiakou Shi Xuanhua Qu,21.24,77,0,4.52,40.6103,115.0447,cn,"Mon, 08 Feb 2021 03:14:50",39.7,114.41
Khandyga,-34.49,82,19,2.35,62.6667,135.6,ru,"Mon, 08 Feb 2021 04:14:50",64.55,137.36
Griffith,9.0,47,1,3.44,41.5284,-87.4237,au,"Sun, 07 Feb 2021 13:14:50",-34.16,145.82
Yanta,32.68,75,0,4.54,36.2411,115.6672,cn,"Mon, 08 Feb 2021 03:14:07",36.48,115.26
Souillac,80.6,78,75,10.36,-20.5167,57.5167,mu,"Sun, 07 Feb 2021 23:14:50",-35.81,64.53
Xiaoweizhai,53.35,92,100,3.06,26.1903,107.5125,cn,"Mon, 08 Feb 2021 03:14:50",25.64,106.9
Asău,30.0,74,100,1.77,46.4333,26.4,tv,"Sun, 07 Feb 2021 21:14:51",-12.18,178.25
Sharan,-4.34,90,100,14.72,54.8167,54.0,ru,"Mon, 08 Feb 2021 00:14:51",54.78,54.01
Taltal,70.2,60,28,6.93,-25.4,-70.4833,cl,"Sun, 07 Feb 2021 16:14:51",-26.03,-74.25
Dorado,82.99,61,40,16.11,18.4588,-66.2677,us,"Sun, 07 Feb 2021 15:14:51",20.49,-66.35
Ust-Kuyga,-29.31,81,0,1.79,70.0167,135.6,ru,"Mon, 08 Feb 2021 05:14:51",70.69,133.45
Kiama,66.0,83,65,1.99,-34.6833,150.8667,au,"Mon, 08 Feb 2021 06:14:44",-36.42,153.93
Kati,78.8,25,0,10.36,12.7441,-8.0726,ml,"Sun, 07 Feb 2021 19:14:52",13.15,-8.25
Santa Rosalía,69.39,24,0,5.01,27.3167,-112.2833,mx,"Sun, 07 Feb 2021 12:14:52",18.11,-93.73
Heihe,-13.0,64,0,4.47,50.2441,127.4902,cn,"Mon, 08 Feb 2021 03:14:52",50.05,126.75
Talaya,-6.93,88,100,10.0,61.3833,152.75,ru,"Mon, 08 Feb 2021 06:14:52",60.07,154.52
Nieuwpoort,26.6,86,90,14.97,51.1244,2.7735,an,"Sun, 07 Feb 2021 20:14:52",11.93,-68.74
Mosquera,69.8,40,75,9.22,4.7059,-74.2302,co,"Sun, 07 Feb 2021 14:11:01",2.58,-78.69
Vyazovaya,-9.08,86,100,11.5,54.905,58.3561,ru,"Mon, 08 Feb 2021 00:14:53",54.95,58.39
Poplar Bluff,24.01,63,1,10.36,36.757,-90.3929,us,"Sun, 07 Feb 2021 13:14:53",36.99,-90.02
Kargat,12.47,95,100,17.92,55.1956,80.2811,ru,"Mon, 08 Feb 2021 02:14:54",55.28,80.28
Ayan,-5.53,80,100,22.3,56.45,138.1667,ru,"Mon, 08 Feb 2021 05:07:47",57.44,140.0
Rafrāf,55.4,88,40,6.91,37.1904,10.1837,tn,"Sun, 07 Feb 2021 20:14:54",37.7,10.53
Cockburn Town,80.6,74,40,14.97,21.4612,-71.1419,tc,"Sun, 07 Feb 2021 14:14:54",24.29,-66.28
Idritsa,5.56,95,89,4.47,56.3316,28.8988,ru,"Sun, 07 Feb 2021 22:14:54",56.03,29.06
Ryazan,5.32,93,99,12.01,54.6197,39.74,ru,"Sun, 07 Feb 2021 22:14:55",54.7,39.74
Banda Aceh,79.16,81,74,7.9,5.5577,95.3222,id,"Mon, 08 Feb 2021 02:14:55",1.16,88.29
Pudozh,-10.89,90,37,3.78,61.8099,36.5345,ru,"Sun, 07 Feb 2021 22:14:55",62.47,37.1
Zyryanka,-18.18,85,100,18.03,65.75,150.85,ru,"Mon, 08 Feb 2021 06:14:43",66.55,151.3
Santa Cruz Cabrália,80.6,78,75,16.11,-16.2781,-39.0247,br,"Sun, 07 Feb 2021 16:14:55",-16.29,-38.37
Rosetta,60.8,77,0,5.75,31.4044,30.4164,eg,"Sun, 07 Feb 2021 21:06:36",32.72,30.79
Sarh,82.4,20,0,5.99,9.1429,18.3923,td,"Sun, 07 Feb 2021 20:14:56",8.85,18.63
Íos,68.0,94,100,17.27,36.7333,25.2833,gr,"Sun, 07 Feb 2021 21:14:56",36.8,25.22
Puerto Ayacucho,92.25,49,95,2.46,5.6639,-67.6236,ve,"Sun, 07 Feb 2021 15:14:57",4.9,-65.88
Umm Kaddadah,67.24,24,0,14.0,13.6017,26.6876,sd,"Sun, 07 Feb 2021 21:14:57",14.39,27.32
Sabang,81.18,80,8,11.56,5.8933,95.3214,ph,"Mon, 08 Feb 2021 02:14:57",14.79,123.16
Arica,77.0,53,0,16.11,-18.475,-70.3042,cl,"Sun, 07 Feb 2021 16:10:14",-18.53,-71.16
Sola,81.3,74,100,8.61,-13.8833,167.55,vu,"Mon, 08 Feb 2021 06:14:57",-11.03,171.63
Mangan,52.75,32,0,8.81,27.5167,88.5333,in,"Mon, 08 Feb 2021 00:44:58",28.47,87.93
Namwala,68.92,92,100,2.77,-15.7504,26.4384,zm,"Sun, 07 Feb 2021 21:14:58",-16.41,25.48
Bandar-e Anzali,50.0,100,90,4.61,37.4727,49.4622,ir,"Sun, 07 Feb 2021 22:44:58",37.36,49.48
Maceió,84.2,61,20,12.66,-9.6658,-35.7353,br,"Sun, 07 Feb 2021 16:13:18",-17.2,-26.71
Toronto,21.0,45,43,13.89,43.7001,-79.4163,ca,"Sun, 07 Feb 2021 14:11:58",43.64,-79.58
Kletnya,-0.71,93,41,6.2,53.3897,33.2171,ru,"Sun, 07 Feb 2021 22:14:59",53.19,33.35
Cururupu,86.05,63,5,6.51,-1.8283,-44.8683,br,"Sun, 07 Feb 2021 16:14:59",0.82,-43.32
Sioux Lookout,-16.6,48,1,9.22,50.1001,-91.917,ca,"Sun, 07 Feb 2021 13:14:59",51.32,-92.32
Marawi,75.0,95,100,1.99,7.9986,124.2928,sd,"Mon, 08 Feb 2021 03:14:59",19.39,27.92
Maragogi,82.42,72,72,12.97,-9.0122,-35.2225,br,"Sun, 07 Feb 2021 16:07:22",-15.85,-25.98
Deputatsky,-29.63,86,0,0.89,69.3,139.9,ru,"Mon, 08 Feb 2021 05:14:59",72.84,140.28
Wyndham,39.99,87,90,5.75,37.6985,-77.6125,nz,"Sun, 07 Feb 2021 14:15:00",-46.24,169.23
Hamada,43.0,15,86,1.99,34.8833,132.0833,jp,"Mon, 08 Feb 2021 04:15:00",35.7,131.41
Formosa do Rio Preto,72.99,78,100,3.53,-11.0483,-45.1931,br,"Sun, 07 Feb 2021 16:15:00",-11.07,-44.91
Roald,24.8,50,0,12.66,62.5833,6.1333,no,"Sun, 07 Feb 2021 20:15:00",68.23,3.91
Shūshtar,58.35,80,0,0.63,32.0455,48.8567,ir,"Sun, 07 Feb 2021 22:45:00",31.72,48.65
Varna,46.4,100,90,9.22,43.2167,27.9167,ru,"Sun, 07 Feb 2021 21:15:01",52.93,61.2
Yerbogachën,18.28,97,100,5.77,61.2767,108.0108,ru,"Mon, 08 Feb 2021 03:15:01",59.67,108.87
Coudekerque-Branche,30.0,86,90,14.97,51.0229,2.3936,fr,"Sun, 07 Feb 2021 20:15:01",50.96,2.5
North Branch,-5.01,45,1,5.75,45.5113,-92.9802,us,"Sun, 07 Feb 2021 13:15:01",46.13,-92.98
Grand Gaube,80.01,80,100,4.0,-20.0064,57.6608,mu,"Sun, 07 Feb 2021 23:05:54",-12.77,65.33
Arshan',19.4,63,100,13.42,46.2732,44.22,ru,"Sun, 07 Feb 2021 22:15:02",45.89,44.02
Baytown,60.01,61,0,7.0,29.7355,-94.9774,us,"Sun, 07 Feb 2021 13:15:02",29.74,-94.86
Kirakira,79.02,80,10,7.05,-10.4544,161.9205,sb,"Mon, 08 Feb 2021 06:15:03",-10.77,162.98
Mihara,48.99,95,18,11.54,34.4,133.0833,jp,"Mon, 08 Feb 2021 04:15:03",34.47,132.99
Lumphat,73.11,68,56,9.55,13.4878,106.9816,kh,"Mon, 08 Feb 2021 02:15:04",13.94,106.95
Loreto,73.49,20,0,13.65,22.2667,-101.9667,mx,"Sun, 07 Feb 2021 13:15:04",26.29,-110.73
Manavālakurichi,80.6,69,20,9.46,8.1333,77.3,in,"Mon, 08 Feb 2021 00:35:29",7.72,76.92
Kibungo,69.8,83,75,2.3,-2.1597,30.5427,rw,"Sun, 07 Feb 2021 21:15:04",-1.98,30.78
Aykhal,-25.47,83,88,5.21,66.0,111.5,ru,"Mon, 08 Feb 2021 04:15:04",66.53,109.42
Karlstad,14.0,85,0,9.22,59.3793,13.5036,se,"Sun, 07 Feb 2021 20:15:04",59.27,13.79
Richmond,39.0,93,90,11.5,37.5538,-77.4603,za,"Sun, 07 Feb 2021 14:10:49",-30.17,30.35
Sarkand,32.85,89,100,2.86,45.41,79.9186,kz,"Mon, 08 Feb 2021 01:15:05",45.59,81.11
Tiznit Province,51.89,79,99,10.69,29.5833,-9.5,ma,"Sun, 07 Feb 2021 20:05:09",27.83,-10.15
Santa Cruz de la Sierra,91.4,49,75,11.5,-17.8,-63.1667,cr,"Sun, 07 Feb 2021 15:15:05",9.28,-89.21
Segezha,-3.24,92,19,6.35,63.7415,34.3222,ru,"Sun, 07 Feb 2021 22:15:05",63.89,33.47
Sande,26.01,68,100,34.52,53.5049,8.0142,no,"Sun, 07 Feb 2021 20:15:05",61.37,5.66
Rawlins,33.8,40,90,32.21,41.7911,-107.2387,us,"Sun, 07 Feb 2021 12:11:58",41.54,-106.58
Dawson Creek,-31.0,68,40,3.44,55.7666,-120.2362,ca,"Sun, 07 Feb 2021 12:07:29",56.59,-120.03
Copiapó,69.8,56,0,13.8,-27.3667,-70.3333,cl,"Sun, 07 Feb 2021 16:15:06",-28.41,-68.85
Canavieiras,84.2,79,75,9.22,-15.675,-38.9472,br,"Sun, 07 Feb 2021 16:15:06",-15.32,-37.58
Xingyi,48.38,97,100,2.64,24.1877,102.817,cn,"Mon, 08 Feb 2021 03:15:06",25.63,105.28
Gemeente Goirle,24.01,86,90,18.41,51.5167,5.05,nl,"Sun, 07 Feb 2021 20:15:06",51.51,5.03
Karaton,81.0,94,75,5.75,-6.3424,106.1045,kz,"Mon, 08 Feb 2021 02:15:06",45.83,52.51
Viedma,64.99,52,75,17.58,-40.8135,-62.9967,ar,"Sun, 07 Feb 2021 16:15:07",-41.44,-62.76
Te Anau,55.99,77,100,2.98,-45.4167,167.7167,nz,"Mon, 08 Feb 2021 08:05:24",-39.22,161.41
Show Low,55.4,15,1,4.61,34.2542,-110.0298,us,"Sun, 07 Feb 2021 12:10:23",34.98,-109.75
Egvekinot,-9.74,80,0,14.12,66.3167,-179.1667,ru,"Mon, 08 Feb 2021 07:15:07",66.5,-178.8
Raahe,8.6,92,0,5.75,64.6833,24.4833,fi,"Sun, 07 Feb 2021 21:15:07",64.71,24.59
Mayumba,79.14,86,100,6.53,-3.432,10.6554,ga,"Sun, 07 Feb 2021 20:15:07",-3.99,10.81
Rizhao,30.72,84,100,9.15,35.4275,119.4553,cn,"Mon, 08 Feb 2021 03:15:08",35.35,119.53
Laguna,60.01,62,1,4.61,38.421,-121.4238,br,"Sun, 07 Feb 2021 11:15:08",-46.82,-28.22
Ca Mau,74.48,86,26,4.38,9.1769,105.15,vn,"Mon, 08 Feb 2021 02:15:08",7.0,105.83
Hervey Bay,80.01,87,44,1.01,-25.2986,152.8535,au,"Mon, 08 Feb 2021 05:15:08",-24.17,158.17
Zhaotong,37.8,88,100,10.27,27.3167,103.7167,cn,"Mon, 08 Feb 2021 03:15:09",27.46,103.9
Yumen,26.85,75,100,1.99,40.2833,97.2,cn,"Mon, 08 Feb 2021 03:15:09",41.17,96.45
Manadhoo,81.45,72,64,9.13,5.7667,73.3833,mv,"Mon, 08 Feb 2021 00:15:09",5.83,74.69
Golden,54.0,11,20,40.29,39.7555,-105.2211,ca,"Sun, 07 Feb 2021 12:15:09",50.91,-117.5
Tura,58.39,43,14,2.51,25.5198,90.2201,ru,"Mon, 08 Feb 2021 00:36:06",66.88,96.74
Takaka,57.0,92,0,2.59,-40.85,172.8,nz,"Mon, 08 Feb 2021 08:15:10",-39.86,172.51
Stornoway,35.6,69,75,11.5,58.2093,-6.3865,gb,"Sun, 07 Feb 2021 19:15:10",58.82,-6.39
Newport,35.01,73,74,24.23,51.5877,-2.9984,us,"Sun, 07 Feb 2021 19:11:19",44.52,-124.93
Fort Nelson,-29.2,68,20,2.3,58.8053,-122.7002,ca,"Sun, 07 Feb 2021 12:08:14",58.86,-125.09
Jalu,67.44,26,92,13.69,29.0331,21.5482,ly,"Sun, 07 Feb 2021 21:05:14",26.14,21.77
Sosnogorsk,-23.39,85,100,11.12,63.6023,53.8817,ru,"Sun, 07 Feb 2021 22:15:11",64.2,54.33
Cabo Rojo,84.99,58,59,8.01,18.0866,-67.1457,us,"Sun, 07 Feb 2021 15:15:11",17.11,-67.85
Dunda,68.58,89,100,3.65,-8.1167,34.25,tz,"Sun, 07 Feb 2021 22:15:11",-8.11,34.51
Moussoro,75.54,16,0,11.05,13.6408,16.4901,td,"Sun, 07 Feb 2021 20:15:12",15.76,17.78
Pitimbu,84.2,70,40,11.5,-7.4706,-34.8086,br,"Sun, 07 Feb 2021 16:15:12",-7.19,-29.14
Honāvar,73.69,42,0,6.11,14.2833,74.45,in,"Mon, 08 Feb 2021 00:45:12",13.61,73.01
Camaná,75.99,70,77,8.05,-16.6228,-72.7111,pe,"Sun, 07 Feb 2021 14:15:12",-20.86,-76.24
Kolondiéba,87.85,15,100,5.79,11.0882,-6.8926,ml,"Sun, 07 Feb 2021 19:15:12",10.93,-6.91
Buluang,75.49,87,100,5.99,13.3068,123.3425,ph,"Mon, 08 Feb 2021 03:15:13",13.43,116.32
Ixtapa,75.2,64,1,10.36,20.7,-105.2,mx,"Sun, 07 Feb 2021 13:13:49",9.68,-105.08
